timestamp,isRaceOn,timestampMS,engine_max_rpm,engine_idle_rpm,engine_current_rpm,accel_x,accel_y,accel_z,vel_x,vel_y,vel_z,ang_vel_x,ang_vel_y,ang_vel_z,yaw,pitch,roll,norm_susp_fl,norm_susp_fr,norm_susp_rl,norm_susp_rr,tire_slip_fl,tire_slip_fr,tire_slip_rl,tire_slip_rr,wheel_rot_fl,wheel_rot_fr,wheel_rot_rl,wheel_rot_rr,wheel_on_rumble_fl,wheel_on_rumble_fr,wheel_on_rumble_rl,wheel_on_rumble_rr,wheel_in_puddle_fl,wheel_in_puddle_fr,wheel_in_puddle_rl,wheel_in_puddle_rr,surface_rumble_fl,surface_rumble_fr,surface_rumble_rl,surface_rumble_rr,tire_slip_angle_fl,tire_slip_angle_fr,tire_slip_angle_rl,tire_slip_angle_rr,tire_combined_slip_fl,tire_combined_slip_fr,tire_combined_slip_rl,tire_combined_slip_rr,susp_travel_fl,susp_travel_fr,susp_travel_rl,susp_travel_rr,car_ordinal,car_class,car_performance_index,drivetrain_type,num_cylinders,pos_x,pos_y,pos_z,speed_mps,speed_kph,speed_mph,power,torque,tire_temp_fl,tire_temp_fr,tire_temp_rl,tire_temp_rr,boost,fuel,distance,best_lap,last_lap,current_lap,current_race_time,lap_number,race_position,accel,brake,clutch,handbrake,gear,steer,norm_driving_line,norm_ai_brake_diff
2025-12-08T21:28:11.093482Z,true,3974698,9499.9951171875,1028.0244140625,4973.7998046875,-8.395614624023438,-0.1445418894290924,-1.715090036392212,-0.4211111068725586,0.010580241680145264,28.46186637878418,0.002982085570693016,-0.3023199439048767,-0.03142014518380165,-2.502455711364746,-0.004608784336596727,0.04668894782662392,0.24466706812381744,0.28392383456230164,0.22499388456344604,0.29137304425239563,-0.02812601812183857,-0.01720690354704857,0.006031585391610861,-0.10708942264318466,91.29608917236328,92.74513244628906,91.6920166015625,92.13421630859375,0,0,0,0,0,0,0,0,0,0,0,0,-0.631836473941803,-0.507706880569458,-0.01957586780190468,-0.012910960242152214,0.632462203502655,0.5079984068870544,0.02048400789499283,0.10786490142345428,-0.006233036518096924,-0.0029830187559127808,-0.00656852126121521,-0.001183837652206421,1387,4,848,0,6,5535.3662109375,102.44599914550781,-397.01776123046875,28.464982986450195,102.4739387512207,63.6744590417099,-34871.7265625,-66.92478942871094,214.97528076171875,213.11224365234375,126.15921783447266,126.15921783447266,-11.02499771118164,1,0,0,0,0,2525.013671875,0,0,0,0,0,0,3,-125,0,0
2025-12-08T21:28:11.118473Z,true,3974731,9499.9951171875,1028.0244140625,4958.62158203125,-9.256649017333984,-0.14964830875396729,-2.244739294052124,-0.4390296936035156,0.008521795272827148,28.37183380126953,0.004629453644156456,-0.35993465781211853,-0.02525700442492962,-2.513578414916992,-0.003961639478802681,0.04581340774893761,0.2413950264453888,0.29859355092048645,0.20290282368659973,0.2683616876602173,-0.032342080026865005,-0.015916161239147186,0.006845566909760237,0.0028746079187840223,90.85557556152344,92.62403869628906,91.25018310546875,91.62418365478516,0,0,0,0,0,0,0,0,0,0,0,0,-0.6037091016769409,-0.4830019474029541,-0.04877403378486633,-0.037174273282289505,0.6045747995376587,0.48326411843299866,0.049252089112997055,0.037285249680280685,-0.00650392472743988,-0.0017685294151306152,-0.008360549807548523,-0.0030505210161209106,1387,4,848,0,6,5534.81689453125,102.44969940185547,-397.7904968261719,28.37523078918457,102.15083084106446,63.473688761558535,-34618.0859375,-66.6484146118164,214.92498779296875,213.09327697753906,126.14371490478516,126.14371490478516,-11.02499771118164,1,0,0,0,0,2525.047119140625,0,0,0,0,0,0,3,-125,0,0
2025-12-08T21:28:11.142099Z,true,3974764,9499.9951171875,1028.0244140625,4942.74462890625,-9.899847030639648,-0.18197187781333923,-2.2595133781433105,-0.42307186126708984,0.0064942240715026855,28.294591903686523,0.006995833478868008,-0.41284820437431335,-0.027017951011657715,-2.526541233062744,-0.003192203352227807,0.0450064018368721,0.2351229190826416,0.307928204536438,0.20280307531356812,0.26841551065444946,-0.032304421067237854,-0.016835391521453857,0.005657747387886047,-0.09930170327425003,90.43357849121094,92.45853424072266,90.87693786621094,91.87714385986328,0,0,0,0,0,0,0,0,0,0,0,0,-0.6966583728790283,-0.5462270975112915,-0.08713064342737198,-0.07106247544288635,0.6974069476127625,0.546486496925354,0.08731414377689362,0.12210939079523087,-0.00702318549156189,-0.000995725393295288,-0.008368641138076782,-0.0030461549758911133,1387,4,848,0,6,5534.2783203125,102.45264434814453,-398.5677490234375,28.29775619506836,101.87192230224609,63.30038274299622,-34381.6640625,-66.39871215820312,214.87391662597656,213.07379150390625,126.13184356689453,126.13184356689453,-11.02499771118164,1,0,0,0,0,2525.08056640625,0,0,0,0,0,0,3,-127,0,0
2025-12-08T21:28:11.180728Z,true,3974798,9499.9951171875,1028.0244140625,4919.490234375,-10.329073905944824,-0.18311601877212524,-2.3039214611053467,-0.39542198181152344,0.010532677173614502,28.200082778930664,0.010697823949158192,-0.4615946412086487,-0.02439703606069088,-2.5411763191223145,-0.002238843822851777,0.044192537665367126,0.22794616222381592,0.3140658736228943,0.20339235663414001,0.2867467403411865,-0.03191408887505531,-0.02476227842271328,0.008190002292394638,0.0033836786169558764,89.93461608886719,92.0970458984375,90.45252990722656,91.31107330322266,0,0,0,0,0,0,0,0,0,0,0,0,-0.8151112198829651,-0.6323740482330322,-0.13067977130413055,-0.10753314197063446,0.8157357573509216,0.6328586935997009,0.1309361606836319,0.10758636891841888,-0.007617339491844177,-0.000487595796585083,-0.008320838212966919,-0.0015591233968734741,1387,4,848,0,6,5533.751953125,102.45484161376953,-399.3492736816406,28.202856063842773,101.53028182983398,63.088096843452455,-34027.07421875,-66.0176010131836,214.83380126953125,213.07041931152344,126.12393951416016,126.12393951416016,-11.02499771118164,1,0,0,0,0,2525.114013671875,0,0,0,0,0,0,3,-127,0,0
2025-12-08T21:28:11.209269Z,true,3974831,9499.9951171875,1028.0244140625,4907.89306640625,-11.390344619750977,-0.08091085404157639,-2.602773666381836,-0.3603343963623047,0.023762226104736328,28.096500396728516,0.006029829382896423,-0.5081527829170227,-0.023807011544704437,-2.557384490966797,-0.0012076165294274688,0.04342128708958626,0.22994117438793182,0.33532217144966125,0.20014651119709015,0.2953685522079468,-0.040234677493572235,-0.01565314270555973,0.009118453599512577,0.003237789962440729,89.5287857055664,92.0737533569336,90.01941680908203,92.37440490722656,0,0,0,0,0,0,0,0,0,0,0,0,-0.6764864325523376,-0.5225515961647034,-0.176651269197464,-0.1459687054157257,0.6776818633079529,0.522786021232605,0.1768864542245865,0.1460046023130417,-0.00745217502117157,0.0012721866369247437,-0.008584141731262207,-0.0008597224950790405,1387,4,848,0,6,5533.23876953125,102.45640563964844,-400.1356201171875,28.098819732666016,101.15575103759765,62.85537381278992,-33803.203125,-65.7634506225586,214.8060760498047,213.08445739746094,126.1195068359375,126.1195068359375,-11.02499771118164,1,0,0,0,0,2525.1474609375,0,0,0,0,0,0,3,-121,0,0
2025-12-08T21:28:11.24606Z,true,3974865,9499.9951171875,1028.0244140625,4905.99365234375,-12.442299842834473,0.21856757998466492,-2.3898892402648926,-0.30357933044433594,0.04235309362411499,28.037826538085938,-0.013349476270377636,-0.5535967350006104,-0.0242603849619627,-2.575194835662842,-0.0005707406089641154,0.042640991508960724,0.24608612060546875,0.35955730080604553,0.19346708059310913,0.2981884181499481,-0.02668093517422676,-0.01984916813671589,0.00528976833447814,0.00030530442018061876,89.3537826538086,92.17847442626953,89.74038696289062,92.3252182006836,0,0,0,0,0,0,0,0,0,0,0,0,-0.5097087025642395,-0.40105757117271423,-0.22985459864139557,-0.18812566995620728,0.5104065537452698,0.40154844522476196,0.22991545498371124,0.18812592327594757,-0.006115555763244629,0.003278583288192749,-0.009125977754592896,-0.0006309747695922852,1387,4,848,0,6,5532.73876953125,102.45783996582031,-400.92840576171875,28.03950309753418,100.94221115112305,62.722686058998114,-33762.91796875,-65.72468566894531,214.76824951171875,213.086181640625,126.11908721923828,126.11908721923828,-11.02499771118164,1,0,0,0,0,2525.180908203125,0,0,0,0,0,0,3,-36,0,0
2025-12-08T21:28:11.379452Z,true,3974898,9499.9951171875,1028.0244140625,4903.05322265625,-10.60533332824707,0.4858279228210449,-1.718292474746704,-0.00405120849609375,0.04627889394760132,27.99532127380371,-0.03742886334657669,-0.5254683494567871,0.03871980309486389,-2.593662738800049,-0.0006617760518565774,0.042630814015865326,0.27540093660354614,0.4035485088825226,0.1887098103761673,0.2966332733631134,-0.0013405709760263562,-0.038322385400533676,-0.00223705917596817,0.0029301915783435106,89.37752532958984,92.04592895507812,89.64913940429688,92.17945098876953,0,0,0,0,0,0,0,0,0,0,0,0,0.20966064929962158,0.19978998601436615,-0.3264180123806,-0.2905913293361664,0.20966492593288422,0.20343215763568878,0.3264256715774536,0.2906061112880707,-0.003688618540763855,0.006920561194419861,-0.009511888027191162,-0.0007571280002593994,1387,4,848,0,6,5532.2509765625,102.45964050292969,-401.72479248046875,27.995359420776367,100.78329391479492,62.62393930271149,-33736.44140625,-65.69293212890625,214.70228576660156,213.0475616455078,126.12407684326172,126.12407684326172,-11.02499771118164,1,0,0,0,0,2525.21435546875,0,0,0,0,0,0,3,0,0,0
2025-12-08T21:28:11.379499Z,true,3974932,9499.9951171875,1028.0244140625,4897.7265625,-7.751608371734619,0.6944816708564758,-1.524543285369873,0.30159664154052734,0.03457149863243103,27.954608917236328,-0.05022965744137764,-0.433231920003891,0.02232176810503006,-2.6095621585845947,-0.0015177102759480476,0.0438067689538002,0.31032854318618774,0.424775630235672,0.2022593468427658,0.30772995948791504,-0.0008016408537514508,-0.03741192817687988,-0.0011549396440386772,0.0031252976041287184,89.4848861694336,91.74147033691406,89.76428985595703,91.85338592529297,0,0,0,0,0,0,0,0,0,0,0,0,0.0655193105340004,0.06018722802400589,-0.38965925574302673,-0.3431072533130646,0.06552421301603317,0.070867158472538,0.3896609842777252,0.3431214988231659,-0.0007970035076141357,0.008677929639816284,-0.008412748575210571,0.00014303624629974365,1387,4,848,0,6,5531.7666015625,102.4622573852539,-402.5226135253906,27.956256866455078,100.64252471923828,62.53646923484803,-33649.7578125,-65.59526824951172,214.61769104003906,212.96241760253906,126.14617156982422,126.14617156982422,-11.02499771118164,1,0,0,0,0,2525.247802734375,0,0,0,0,0,0,3,0,0,0
2025-12-08T21:28:11.379509Z,true,3974965,9499.9951171875,1028.0244140625,4890.35205078125,-7.694756984710693,0.8897419571876526,-1.3297255039215088,0.40000152587890625,0.027633458375930786,27.913667678833008,-0.04413599520921707,-0.3481687903404236,-0.00010130833834409714,-2.6225218772888184,-0.0025625168345868587,0.04411289468407631,0.3355630040168762,0.42325615882873535,0.22581957280635834,0.3242771625518799,-0.0004336298443377018,-0.036867327988147736,-0.0006268384750001132,0.0031310764607042074,89.54084777832031,91.41262817382812,89.82746124267578,91.50904846191406,0,0,0,0,0,0,0,0,0,0,0,0,-0.0021912006195634604,-0.0034047896042466164,-0.37430161237716675,-0.32241156697273254,0.0022336954716593027,0.03702421486377716,0.3743021488189697,0.32242676615715027,0.0012921243906021118,0.008552134037017822,-0.006501540541648865,0.0014853477478027344,1387,4,848,0,6,5531.28955078125,102.46574401855469,-403.32293701171875,27.916545867919922,100.49956512451172,62.44763811378479,-33537.57421875,-65.47525787353516,214.51380920410156,212.8624267578125,126.17578887939453,126.17578887939453,-11.02499771118164,1,0,0,0,0,2525.28125,0,0,0,0,0,0,3,0,0,0
2025-12-08T21:28:11.379558Z,true,3974998,9499.9951171875,1028.0244140625,4882.1650390625,-8.238758087158203,0.8909633159637451,-1.177900791168213,0.3963794708251953,0.02111995220184326,27.87503433227539,-0.02899683266878128,-0.27233463525772095,-0.009367353282868862,-2.632786750793457,-0.003321233903989196,0.043919410556554794,0.34006616473197937,0.4061385691165924,0.2620171308517456,0.3593771457672119,-0.002666870132088661,-0.035595834255218506,-0.00034390322980470955,0.0028863975312560797,89.57901000976562,91.0715560913086,89.85953521728516,91.17670440673828,0,0,0,0,0,0,0,0,0,0,0,0,-0.03227980062365532,-0.02997119352221489,-0.3245421350002289,-0.2861997187137604,0.03238977864384651,0.04653317108750343,0.3245423138141632,0.28621426224708557,0.0016649365425109863,0.007134988903999329,-0.003565192222595215,0.0043326616287231445,1387,4,848,0,6,5530.82080078125,102.46993255615234,-404.1271057128906,27.877859115600586,100.36029281616212,62.36109817005158,-33410.15625,-65.3369369506836,214.4033966064453,212.75868225097656,126.2026138305664,126.2026138305664,-11.02499771118164,1,0,0,0,0,2525.314697265625,0,0,0,0,0,0,3,0,0,0
2025-12-08T21:28:11.451421Z,true,3975032,9499.9951171875,1028.0244140625,4874.1728515625,-7.979819297790527,0.731082022190094,-0.9045395851135254,0.34853363037109375,0.01887357234954834,27.838518142700195,-0.012969975359737873,-0.20773299038410187,-0.007160307373851538,-2.6406986713409424,-0.0036474771331995726,0.04365895688533783,0.3265102207660675,0.3854964077472687,0.2897605895996094,0.38458511233329773,-0.006490851286798716,-0.033415716141462326,-0.000038156475056894124,0.0025691301561892033,89.60266876220703,90.75215148925781,89.86966705322266,90.87571716308594,0,0,0,0,0,0,0,0,0,0,0,0,-0.042785171419382095,-0.039117857813835144,-0.2651192247867584,-0.2418433278799057,0.04327472671866417,0.051447223871946335,0.2651192247867584,0.24185697734355927,0.0005426555871963501,0.00542604923248291,-0.0013146400451660156,0.0063775330781936646,1387,4,848,0,6,5530.36083984375,102.47441864013672,-404.9348449707031,27.840707778930664,100.22654800415039,62.277992859001166,-33285.21875,-65.20106506347656,214.2957763671875,212.6587371826172,126.22315216064453,126.22315216064453,-11.02499771118164,1,0,0,0,0,2525.34814453125,0,0,0,0,0,0,3,0,0,0
2025-12-08T21:28:11.451469Z,true,3975065,9499.9951171875,1028.0244140625,4867.1240234375,-7.7431640625,0.5470492839813232,-0.9419894218444824,0.2726554870605469,0.020782798528671265,27.803180694580078,-0.0039827097207307816,-0.1581905037164688,0.0005451031029224396,-2.6466965675354004,-0.0036328029818832874,0.043559711426496506,0.3071189820766449,0.3777312636375427,0.3056705594062805,0.3837393820285797,-0.007398598361760378,-0.032966528087854385,0.00022500615159515291,0.002051995135843754,89.5703125,90.52369689941406,89.85977935791016,90.62483978271484,0,0,0,0,0,0,0,0,0,0,0,0,-0.06643340736627579,-0.05960686504840851,-0.2052033543586731,-0.1950555145740509,0.06684412062168121,0.06811586022377014,0.20520348846912384,0.19506630301475525,-0.0010627210140228271,0.004783183336257935,-0.000024020671844482422,0.00630892813205719,1387,4,848,0,6,5529.90869140625,102.47892761230469,-405.7457275390625,27.804523468017578,100.09628448486329,62.197050726547246,-33173.2890625,-65.07962799072266,214.19117736816406,212.56280517578125,126.23687744140625,126.23687744140625,-11.02499771118164,1,0,0,0,0,2525.381591796875,0,0,0,0,0,0,3,-4,0,0
2025-12-08T21:28:11.478734Z,true,3975098,9499.9951171875,1028.0244140625,4860.4599609375,-7.645331382751465,0.3999629318714142,-1.1042330265045166,0.17559814453125,0.023829102516174316,27.767282485961914,-0.003543908940628171,-0.1316358894109726,-0.0031078262254595757,-2.6513891220092773,-0.0035400015767663717,0.043582383543252945,0.2958821952342987,0.3767485022544861,0.30715078115463257,0.36940014362335205,-0.005311083979904652,-0.03402164950966835,0.0009592904825694859,0.0012286847922950983,89.48546600341797,90.3619384765625,89.81241607666016,90.437255859375,0,0,0,0,0,0,0,0,0,0,0,0,-0.15821056067943573,-0.13904260098934174,-0.15077266097068787,-0.14602652192115784,0.15829968452453613,0.1431443840265274,0.1507757157087326,0.1460316777229309,-0.0019930005073547363,0.004701822996139526,0.00009605288505554199,0.005145728588104248,1387,4,848,0,6,5529.4638671875,102.48332214355469,-406.5592956542969,27.76784896850586,99.9642562866211,62.1150120716095,-33070.19921875,-64.96764373779297,214.09075927734375,212.47303771972656,126.24407958984375,126.24407958984375,-11.02499771118164,1,0,0,0,0,2525.4150390625,0,0,0,0,0,0,3,-20,0,0
2025-12-08T21:28:11.567669Z,true,3975132,9499.9951171875,1028.0244140625,4853.2275390625,-7.527411460876465,0.30766740441322327,-1.176995038986206,0.06575584411621094,0.024381041526794434,27.729904174804688,-0.008082722313702106,-0.14017465710639954,-0.0008511903579346836,-2.6558585166931152,-0.003534311428666115,0.043516065925359726,0.2889646291732788,0.3838701844215393,0.2924911677837372,0.3511980473995209,-0.013799795880913734,-0.02779548428952694,0.001749427174217999,0.0005581143777817488,89.38819885253906,90.19161224365234,89.6850357055664,90.33845520019531,0,0,0,0,0,0,0,0,0,0,0,0,-0.23789706826210022,-0.20404814183712006,-0.1147553026676178,-0.1102481558918953,0.2382969707250595,0.2059325873851776,0.1147686317563057,0.11024956405162811,-0.0025656968355178833,0.005291417241096497,-0.0010931342840194702,0.003669172525405884,1387,4,848,0,6,5529.02685546875,102.4875717163086,-407.37506103515625,27.72999382019043,99.82797775268556,62.03033237613678,-32959.65234375,-64.84648895263672,214.00108337402344,212.39849853515625,126.24471282958984,126.24471282958984,-11.02499771118164,1,0,0,0,0,2525.448486328125,0,0,0,0,0,0,3,-49,0,0
2025-12-08T21:28:11.567748Z,true,3975165,9499.9951171875,1028.0244140625,4845.6845703125,-7.654726982116699,0.28956037759780884,-1.0546295642852783,-0.06603431701660156,0.024099647998809814,27.690570831298828,-0.01392947044223547,-0.17101693153381348,0.004675591364502907,-2.661057949066162,-0.0036821055691689253,0.043613534420728683,0.2862989604473114,0.3905388116836548,0.2731553316116333,0.3477696180343628,-0.016554655507206917,-0.02538243867456913,0.0025661319959908724,0.00025872362311929464,89.2053451538086,90.0953598022461,89.50056457519531,90.29106903076172,0,0,0,0,0,0,0,0,0,0,0,0,-0.3288486897945404,-0.2787592113018036,-0.08564366400241852,-0.07971590012311935,0.32926511764526367,0.27991241216659546,0.08568210154771805,0.07971632480621338,-0.002786383032798767,0.005843505263328552,-0.002661660313606262,0.003391057252883911,1387,4,848,0,6,5528.59765625,102.49170684814453,-408.1939392089844,27.69066047668457,99.68637771606446,61.94234604671479,-32847.0234375,-64.72247314453125,213.92359924316406,212.34010314941406,126.24077606201172,126.24077606201172,-11.02499771118164,1,0,0,0,0,2525.48193359375,0,0,0,0,0,0,3,-72,0,0
2025-12-08T21:28:11.579393Z,true,3975198,9499.9951171875,1028.0244140625,4837.73291015625,-8.397321701049805,0.3595777451992035,-1.1623306274414062,-0.19484519958496094,0.02438974380493164,27.646512985229492,-0.018723273649811745,-0.21614792943000793,0.005430720746517181,-2.667564868927002,-0.003951061051338911,0.04380803927779198,0.2859303653240204,0.402073472738266,0.2645430862903595,0.34976065158843994,-0.038219865411520004,0.000981787801720202,0.0032596145756542683,0.00048351482837460935,89.11588287353516,89.89059448242188,89.2613754272461,90.25955200195312,0,0,0,0,0,0,0,0,0,0,0,0,-0.41526859998703003,-0.3455122709274292,-0.06300589442253113,-0.0583001971244812,0.4170237183570862,0.3455136716365814,0.06309016048908234,0.058302201330661774,-0.002816900610923767,0.006798446178436279,-0.0033602863550186157,0.003552570939064026,1387,4,848,0,6,5528.177734375,102.49584197998047,-409.01593017578125,27.64720916748047,99.52995300292969,61.845148075103765,-32738.8984375,-64.5927505493164,213.85951232910156,212.2974395751953,126.23303985595703,126.23303985595703,-11.02499771118164,1,0,0,0,0,2525.515380859375,0,0,0,0,0,0,3,-80,0,0
2025-12-08T21:28:11.646063Z,true,3975232,9499.9951171875,1028.0244140625,4830.609375,-8.770086288452148,0.42354169487953186,-1.1973378658294678,-0.2825336456298828,0.02277207374572754,27.598968505859375,-0.02145647257566452,-0.26516270637512207,0.008633704856038094,-2.675693988800049,-0.004277132451534271,0.04406730458140373,0.28782907128334045,0.4025299549102783,0.2592160105705261,0.3577580749988556,-0.04107155278325081,0.0004111203597858548,0.0034122676588594913,0.000622057355940342,88.88886260986328,89.85401916503906,88.99623107910156,90.22727966308594,0,0,0,0,0,0,0,0,0,0,0,0,-0.37292468547821045,-0.3137105405330658,-0.05840381234884262,-0.05377733334898949,0.37517955899238586,0.3137108087539673,0.058503407984972,0.0537809319794178,-0.002659708261489868,0.006836235523223877,-0.0037924200296401978,0.004201322793960571,1387,4,848,0,6,5527.76806640625,102.50008392333984,-409.8415222167969,27.60042381286621,99.36152572631836,61.74049204395295,-32620.197265625,-64.46066284179688,213.8054962158203,212.26641845703125,126.22309112548828,126.22309112548828,-11.02499771118164,1,0,0,0,0,2525.548828125,0,0,0,0,0,0,3,-82,0,0
2025-12-08T21:28:11.646144Z,true,3975265,9499.9951171875,1028.0244140625,4823.67578125,-8.999093055725098,0.4321955740451813,-1.349663496017456,-0.3087787628173828,0.01712977886199951,27.55354118347168,-0.01951328106224537,-0.308011531829834,0.0083698071539402,-2.6853559017181396,-0.004542171023786068,0.0444086529314518,0.28094229102134705,0.3935711085796356,0.25778448581695557,0.3632519543170929,-0.04056757315993309,0.0006441876175813377,0.00318252295255661,0.0007958834175951779,88.67768859863281,89.80863952636719,88.74208068847656,90.17959594726562,0,0,0,0,0,0,0,0,0,0,0,0,-0.3337584435939789,-0.2842221260070801,-0.07377488911151886,-0.06756103783845901,0.3362148404121399,0.28422287106513977,0.07384350150823593,0.06756572425365448,-0.003229856491088867,0.006094545125961304,-0.0039085447788238525,0.004646986722946167,1387,4,848,0,6,5527.36767578125,102.50437927246094,-410.6702880859375,27.55527687072754,99.19899673461914,61.639501043205264,-32514.38671875,-64.34515380859375,213.74830627441406,212.22816467285156,126.21288299560547,126.21288299560547,-11.02499771118164,1,0,0,0,0,2525.582275390625,0,0,0,0,0,0,3,-81,0,0
2025-12-08T21:28:11.6776Z,true,3975298,9499.9951171875,1028.0244140625,4815.78662109375,-8.17595386505127,0.3856683075428009,-1.042797565460205,-0.27591896057128906,0.014384448528289795,27.512313842773438,-0.013900535181164742,-0.3381470739841461,0.010622027330100536,-2.696255683898926,-0.004615309648215771,0.044745370745658875,0.27175936102867126,0.38127651810646057,0.2585996985435486,0.3750578761100769,-0.04456360265612602,0.0006671676528640091,0.0025147716514766216,0.0011338768526911736,88.39811706542969,89.79629516601562,88.52056884765625,90.11002349853516,0,0,0,0,0,0,0,0,0,0,0,0,-0.2055712342262268,-0.1802155077457428,-0.10414369404315948,-0.09525953233242035,0.2103460133075714,0.1802167296409607,0.10417404770851135,0.09526628255844116,-0.003990098834037781,0.005076691508293152,-0.0038424134254455566,0.005604684352874756,1387,4,848,0,6,5526.9765625,102.5086669921875,-411.50177001953125,27.513702392578125,99.04932861328125,61.546501430053716,-32396.5078125,-64.20852661132812,213.68641662597656,212.1822967529297,126.20459747314453,126.20459747314453,-11.02499771118164,1,0,0,0,0,2525.61572265625,0,0,0,0,0,0,3,-43,0,0
2025-12-08T21:28:11.711392Z,true,3975332,9499.9951171875,1028.0244140625,4810.189453125,-6.578519344329834,0.4061236083507538,-1.3234691619873047,-0.04979228973388672,0.015030533075332642,27.475086212158203,-0.009167829528450966,-0.29632702469825745,0.04544771462678909,-2.7070565223693848,-0.004488674458116293,0.04585236683487892,0.2613593637943268,0.3694414496421814,0.26464852690696716,0.36830607056617737,-0.04051093012094498,0.0027367714792490005,-0.00037037793663330376,0.002829530742019415,88.47265625,89.51466369628906,88.47341918945312,89.90021514892578,0,0,0,0,0,0,0,0,0,0,0,0,0.13315056264400482,0.13268554210662842,-0.16803565621376038,-0.1627606749534607,0.1391768902540207,0.13271376490592957,0.1680360585451126,0.16278526186943054,-0.004851102828979492,0.004096880555152893,-0.003351733088493347,0.005056977272033691,1387,4,848,0,6,5526.591796875,102.51309204101562,-412.3341064453125,27.475135803222656,98.91048889160156,61.46023028366089,-32306.060546875,-64.11531829833984,213.6076202392578,212.11041259765625,126.20098876953125,126.20098876953125,-11.02499771118164,1,0,0,0,0,2525.649169921875,0,0,0,0,0,0,3,0,0,0
2025-12-08T21:28:11.747073Z,true,3975365,9499.9951171875,1028.0244140625,4803.2548828125,-4.520790100097656,0.31938308477401733,-1.1592662334442139,0.10538578033447266,0.014208048582077026,27.43653106689453,-0.007573743350803852,-0.23440289497375488,0.03171956539154053,-2.7158031463623047,-0.00435413233935833,0.04715918004512787,0.2584928274154663,0.36792251467704773,0.262939453125,0.3520048260688782,-0.041665397584438324,0.0026218064595013857,-0.00006088051668484695,0.0027642520144581795,88.49237823486328,89.23833465576172,88.49296569824219,89.62407684326172,0,0,0,0,0,0,0,0,0,0,0,0,0.053670547902584076,0.05079151317477226,-0.19241158664226532,-0.1832919418811798,0.06794507056474686,0.05085913464426994,0.1924116015434265,0.1833127737045288,-0.00508841872215271,0.003971129655838013,-0.0034903734922409058,0.0037346184253692627,1387,4,848,0,6,5526.208984375,102.51769256591797,-413.1663513183594,27.436735153198242,98.77224655151367,61.37433033359528,-32199.853515625,-63.99803924560547,213.52880859375,212.03073120117188,126.20690155029297,126.20690155029297,-11.02499771118164,1,0,0,0,0,2525.6826171875,0,0,0,0,0,0,3,0,0,0
2025-12-08T21:28:11.787533Z,true,3975399,9499.9951171875,1028.0244140625,4811.1513671875,-4.097718715667725,0.25110018253326416,-0.8244333863258362,0.1580667495727539,0.012321442365646362,27.419025421142578,-0.0075260549783706665,-0.18097497522830963,0.023809833452105522,-2.7226357460021973,-0.004282240755856037,0.048081278800964355,0.258731871843338,0.37126582860946655,0.2596537470817566,0.33553916215896606,0.005576255731284618,-0.0009612442809157073,-0.0008193980320356786,0.0015578962629660964,88.60557556152344,89.41732788085938,88.55719757080078,89.43297576904297,0,0,0,0,0,0,0,0,0,0,0,0,0.012865283526480198,0.011369329877197742,-0.1804530769586563,-0.17094743251800537,0.014021774753928185,0.011409892700612545,0.18045493960380554,0.17095452547073364,-0.00506862998008728,0.004247918725013733,-0.003756910562515259,0.0023989230394363403,1387,4,848,0,6,5525.830078125,102.52230834960938,-413.9991149902344,27.419483184814453,98.71013946533203,61.33573871543884,1212.040771484375,2.4056105613708496,213.43763732910156,211.94259643554688,126.2146224975586,126.2146224975586,-11.02499771118164,1,0,0,0,0,2525.716064453125,0,0,255,0,0,0,3,0,0,0
2025-12-08T21:28:11.901829Z,true,3975432,9499.9951171875,1028.0244140625,4825.82373046875,-4.033565998077393,0.1737222969532013,-0.381614089012146,0.15665149688720703,0.007707357406616211,27.42304801940918,-0.007231421768665314,-0.1346823126077652,0.02122308872640133,-2.727815628051758,-0.004276486113667488,0.04884767159819603,0.26543253660202026,0.3741447627544403,0.25687721371650696,0.3225679099559784,0.05322267487645149,0.012079460546374321,-0.0013155904598534107,0.0007420440088026226,89.12470245361328,89.44110870361328,88.67484283447266,89.32891845703125,0,0,0,0,0,0,0,0,0,0,0,0,-0.006328312214463949,-0.006282416637986898,-0.15119203925132751,-0.1435394287109375,0.0535975806415081,0.013615510426461697,0.15119776129722595,0.1435413509607315,-0.00451388955116272,0.004486262798309326,-0.003982141613960266,0.001346692442893982,1387,4,848,0,6,5525.455078125,102.52680969238281,-414.833740234375,27.423494338989258,98.72457962036133,61.344711426658634,34782.265625,68.82862091064453,213.34352111816406,211.85028076171875,126.22075653076172,126.22075653076172,-11.02499771118164,1,0,0,0,0,2525.74951171875,0,0,255,0,0,0,3,0,0,0
2025-12-08T21:28:11.901904Z,true,3975465,9499.9951171875,1028.0244140625,4843.47265625,-3.9933321475982666,0.11797834932804108,0.15419256687164307,0.1294851303100586,0.0028932690620422363,27.449087142944336,-0.006958002224564552,-0.09729550778865814,0.02207397297024727,-2.7316184043884277,-0.004329680930823088,0.049573127180337906,0.2744748890399933,0.37490126490592957,0.2570061683654785,0.3309975564479828,0.07895530760288239,0.04193240404129028,-0.0018133943667635322,-0.00013894079893361777,89.5228500366211,89.6960220336914,88.843505859375,89.31724548339844,0,0,0,0,0,0,0,0,0,0,0,0,-0.012478221207857132,-0.011807776987552643,-0.11777865886688232,-0.11225154995918274,0.07993526756763458,0.04356317222118378,0.11779262125492096,0.1122516393661499,-0.003765285015106201,0.004548892378807068,-0.003971680998802185,0.002030506730079651,1387,4,848,0,6,5525.08447265625,102.5311508178711,-415.6708068847656,27.449392318725586,98.81781234741212,61.40264365345001,68657.7734375,135.3756866455078,213.2549285888672,211.76107788085938,126.22367095947266,126.22367095947266,-11.02499771118164,1,0,0,0,0,2525.782958984375,0,0,255,0,0,0,3,0,0,0
2025-12-08T21:28:11.901914Z,true,3975499,9499.9951171875,1028.0244140625,4865.08642578125,-4.149613380432129,0.10686088353395462,0.517600417137146,0.0935201644897461,-0.002425670623779297,27.496402740478516,-0.006906379945576191,-0.06814859807491302,0.0259538721293211,-2.7343242168426514,-0.0044243610464036465,0.05038744956254959,0.2800770699977875,0.3726416826248169,0.2579419016838074,0.3420659601688385,0.10384974628686905,0.0732964277267456,-0.0023298515006899834,-0.0010317765409126878,89.95819091796875,90.06040954589844,89.06168365478516,89.39421844482422,0,0,0,0,0,0,0,0,0,0,0,0,-0.012120555154979229,-0.01140531338751316,-0.08664608746767044,-0.08331609517335892,0.1045546680688858,0.07417848706245422,0.08667740225791931,0.08332248032093048,-0.003301486372947693,0.004361823201179504,-0.003895774483680725,0.0029283761978149414,1387,4,848,0,6,5524.71728515625,102.53535461425781,-416.5109558105469,27.496564865112305,98.9876335144043,61.50816580936432,103188.734375,202.57232666015625,213.17095947265625,211.67733764648438,126.22272491455078,126.22272491455078,-10.878847122192383,1,0,0,0,0,2525.81640625,0,0,255,0,0,0,3,0,0,0
2025-12-08T21:28:11.948205Z,true,3975532,9499.9951171875,1028.0244140625,4891.083984375,-3.0421812534332275,0.03474808484315872,1.3256707191467285,0.059192657470703125,-0.009775876998901367,27.564334869384766,-0.008241855539381504,-0.046624358743429184,0.028536584228277206,-2.7362005710601807,-0.004583635833114386,0.051319509744644165,0.2826140224933624,0.3670855760574341,0.26974305510520935,0.3504629135131836,0.12913334369659424,0.10677222907543182,-0.0028322110883891582,-0.0018644538940861821,90.46055603027344,90.52001953125,89.33103942871094,89.55879974365234,0,0,0,0,0,0,0,0,0,0,0,0,-0.008872407488524914,-0.008248980157077312,-0.05975280702114105,-0.058966439217329025,0.12943777441978455,0.10709040611982346,0.059819892048835754,0.05899590626358986,-0.00309145450592041,0.003901839256286621,-0.0029384642839431763,0.0036095380783081055,1387,4,848,0,6,5524.35205078125,102.5394058227539,-417.35357666015625,27.564401626586914,99.23184585571289,61.65991257457733,139010.46875,271.4640808105469,213.09173583984375,211.59872436523438,126.21813201904297,126.21813201904297,-10.499153137207031,1,0,0,0,0,2525.849853515625,0,0,255,0,0,0,3,0,0,0
2025-12-08T21:28:11.948285Z,true,3975565,9499.9951171875,1028.0244140625,4922.830078125,-2.587289810180664,0.031863290816545486,1.8767259120941162,0.030158042907714844,-0.017617374658584595,27.653766632080078,-0.010118838399648666,-0.031234130263328552,0.028376759961247444,-2.7374773025512695,-0.004827807191759348,0.05227920785546303,0.2835668921470642,0.35928893089294434,0.28555622696876526,0.35693055391311646,0.1592557430267334,0.1431667059659958,-0.003389333840459585,-0.002695684786885977,91.06324768066406,91.09199523925781,89.65607452392578,89.80862426757812,0,0,0,0,0,0,0,0,0,0,0,0,-0.00448548374697566,-0.003887076396495104,-0.03792216256260872,-0.039320316165685654,0.15931889414787292,0.1432194709777832,0.03807332366704941,0.03941261023283005,-0.0030125677585601807,0.003256365656852722,-0.0016556978225708008,0.004134193062782288,1387,4,848,0,6,5523.98779296875,102.5433578491211,-418.1998291015625,27.653789520263672,99.55364227294922,61.85986792945862,176672.890625,342.8179016113281,213.01744079589844,211.52523803710938,126.21074676513672,126.21074676513672,-9.9047212600708,1,0,0,0,0,2525.88330078125,0,0,255,0,0,0,3,0,0,0
2025-12-08T21:28:11.978195Z,true,3975599,9499.9951171875,1028.0244140625,4961.82373046875,-2.480752944946289,0.06349115073680878,2.315579652786255,0.007582664489746094,-0.026291251182556152,27.765064239501953,-0.012370127253234386,-0.020579421892762184,0.026859963312745094,-2.7383346557617188,-0.005161919631063938,0.053207844495773315,0.2830350399017334,0.34906747937202454,0.29861384630203247,0.36107170581817627,0.19540132582187653,0.18763862550258636,-0.003992898389697075,-0.003503502579405904,91.78057861328125,91.81752014160156,90.0408935546875,90.14134216308594,0,0,0,0,0,0,0,0,0,0,0,0,-0.0002759509952738881,0.0003726042341440916,-0.02163294516503811,-0.024419812485575676,0.19540151953697205,0.1876389980316162,0.02199835330247879,0.02466985583305359,-0.0030566006898880005,0.0024101436138153076,-0.000596463680267334,0.004470124840736389,1387,4,848,0,6,5523.6240234375,102.54727172851562,-419.04998779296875,27.765079498291016,99.95428619384766,62.10881693290711,216764.71875,417.3443908691406,212.94871520996094,211.45742797851562,126.20120239257812,126.20120239257812,-9.106860160827637,1,0,0,0,0,2525.916748046875,0,0,255,0,0,0,3,0,0,0
2025-12-08T21:28:12.092211Z,true,3975632,9499.9951171875,1028.0244140625,5007.396484375,-1.810031533241272,0.060787953436374664,3.0071890354156494,-0.008849143981933594,-0.03705477714538574,27.89967155456543,-0.014847684651613235,-0.013390895910561085,0.02387433685362339,-2.7389073371887207,-0.005591550841927528,0.054056316614151,0.28172919154167175,0.3368409276008606,0.30845922231674194,0.36308297514915466,0.23604416847229004,0.2379361391067505,-0.004629085771739483,-0.004286503419280052,92.61048126220703,92.67391204833984,90.49311065673828,90.558349609375,0,0,0,0,0,0,0,0,0,0,0,0,0.0033076645340770483,0.004158176481723785,-0.009890446439385414,-0.013447669334709644,0.23606733977794647,0.2379724681377411,0.010920136235654354,0.014114315621554852,-0.0031647086143493652,0.0013979226350784302,0.00020219385623931885,0.004633277654647827,1387,4,848,0,6,5523.259765625,102.55121612548828,-419.9047546386719,27.89969825744629,100.43891372680665,62.4099510200119,259851.125,495.79705810546875,212.8863525390625,211.3958740234375,126.19007110595703,126.19007110595703,-8.110379219055176,1,0,0,0,0,2525.9501953125,0,0,255,0,0,0,3,0,0,0
2025-12-08T21:28:12.092296Z,true,3975666,9499.9951171875,1028.0244140625,5059.001953125,-1.8423856496810913,0.06842256337404251,3.617297410964966,-0.03943443298339844,-0.05065560340881348,28.057601928710938,-0.016677167266607285,-0.017642106860876083,0.017248349264264107,-2.7394540309906006,-0.006096155382692814,0.05466017127037048,0.27899083495140076,0.3230450451374054,0.3167933523654938,0.36519983410835266,0.28907182812690735,0.28591179847717285,-0.0050959512591362,-0.0050985803827643394,93.57209777832031,93.62181854248047,90.99427795410156,91.07671356201172,0,0,0,0,0,0,0,0,0,0,0,0,-0.013274241238832474,-0.01214605662971735,0.0009722232935018837,-0.003184722503647208,0.289376437664032,0.2861696779727936,0.005187864415347576,0.006011487450450659,-0.0033914148807525635,0.000255778431892395,0.000878259539604187,0.0048049986362457275,1387,4,848,0,6,5522.89501953125,102.55516815185547,-420.76385498046875,28.05767059326172,101.00761413574219,62.76332565689087,299516.40625,565.6633911132812,212.83106994628906,211.34202575683594,126.1777114868164,126.1777114868164,-6.918137073516846,1,0,0,0,0,2525.983642578125,0,0,255,0,0,0,3,-4,0,0
2025-12-08T21:28:12.092305Z,true,3975699,9499.9951171875,1028.0244140625,5112.57177734375,-1.2592862844467163,0.003128066658973694,4.448832035064697,-0.07149410247802734,-0.06701111793518066,28.229511260986328,-0.013350047171115875,-0.027824627235531807,0.0072065191343426704,-2.74019193649292,-0.00657574413344264,0.055102478712797165,0.27309003472328186,0.3076706528663635,0.3234705626964569,0.3670564293861389,0.3552028238773346,0.32065290212631226,-0.004871153272688389,-0.005575150717049837,94.64531707763672,94.5307846069336,91.52506256103516,91.64814758300781,0,0,0,0,0,0,0,0,0,0,0,0,-0.11686976253986359,-0.11219171434640884,0.00819071102887392,0.003448713105171919,0.3739352822303772,0.33971351385116577,0.009529736824333668,0.006555602885782719,-0.003879934549331665,-0.001017048954963684,0.0014199167490005493,0.004955604672431946,1387,4,848,0,6,5522.529296875,102.55906677246094,-421.62884521484375,28.22968101501465,101.62685165405274,63.14810264972687,320462.4375,598.9110107421875,212.78273010253906,211.2947998046875,126.1651840209961,126.1651840209961,-5.556462287902832,1,0,0,0,0,2526.01708984375,0,0,255,0,0,0,3,-75,0,0
2025-12-08T21:28:12.110554Z,true,3975732,9499.9951171875,1028.0244140625,5167.0205078125,-2.2120256423950195,-0.02796507626771927,4.753734111785889,-0.14089679718017578,-0.07890397310256958,28.408164978027344,-0.0058608450926840305,-0.05779191479086876,-0.0030646673403680325,-2.741631269454956,-0.006810723803937435,0.055156514048576355,0.2637769877910614,0.290476530790329,0.3282899260520935,0.36791959404945374,0.4360233247280121,0.3403644561767578,-0.004627986345440149,-0.006045289803296328,95.79389190673828,95.39691925048828,92.0235366821289,92.28221130371094,0,0,0,0,0,0,0,0,0,0,0,0,-0.23158986866474152,-0.21405304968357086,0.018486173823475838,0.012998654507100582,0.4937106668949127,0.40207794308662415,0.01905667595565319,0.014335639774799347,-0.0046509504318237305,-0.002440527081489563,0.0018108636140823364,0.005025625228881836,1387,4,848,0,6,5522.16357421875,102.56275939941406,-422.50079345703125,28.40862464904785,102.27104873657227,63.548388822441105,337220.1875,623.6222534179688,212.74365234375,211.25762939453125,126.15331268310547,126.15331268310547,-4.085931777954102,1,0,0,0,0,2526.050537109375,0,0,255,0,0,0,3,-111,0,0
2025-12-08T21:28:12.165477Z,true,3975766,9499.9951171875,1028.0244140625,5223.60791015625,-3.011803150177002,-0.061119504272937775,5.069521903991699,-0.21646785736083984,-0.08411356806755066,28.58747100830078,0.0009239474311470985,-0.10076136142015457,-0.009607398882508278,-2.7443084716796875,-0.006731267087161541,0.05495581775903702,0.2511864900588989,0.2744244933128357,0.32841813564300537,0.36691057682037354,0.5176320672035217,0.3669740557670593,-0.004434179048985243,-0.006274246145039797,96.91699981689453,96.36766815185547,92.49462127685547,92.95294952392578,0,0,0,0,0,0,0,0,0,0,0,0,-0.3410337269306183,-0.3062700927257538,0.023027431219816208,0.017243657261133194,0.6198765635490417,0.47798675298690796,0.023450469598174095,0.018349654972553253,-0.005693301558494568,-0.0037694573402404785,0.001821264624595642,0.004943773150444031,1387,4,848,0,6,5521.7998046875,102.56615447998047,-423.3795471191406,28.588415145874023,102.9182945251465,63.950569376411444,345248.03125,631.5846557617188,212.71800231933594,211.2335662841797,126.14234161376953,126.14234161376953,-2.5612525939941406,1,0,0,0,0,2526.083984375,0,0,255,0,0,0,3,-112,0,0
2025-12-08T21:28:12.182391Z,true,3975799,9499.9951171875,1028.0244140625,5262.7216796875,-4.367866516113281,-0.049643807113170624,5.033481597900391,-0.2882347106933594,-0.08308416604995728,28.759428024291992,0.003098384477198124,-0.1529054492712021,-0.014164912514388561,-2.74857759475708,-0.0064042410813272,0.05457387864589691,0.24006544053554535,0.2708669900894165,0.3240128457546234,0.3625867962837219,0.5638354420661926,0.3569023609161377,-0.0041886139661073685,-0.006347480230033398,97.71833038330078,97.0136489868164,92.9276351928711,93.62965393066406,0,0,0,0,0,0,0,0,0,0,0,0,-0.44901326298713684,-0.3902944326400757,0.020309414714574814,0.01499506738036871,0.7207796573638916,0.5288752317428589,0.020736847072839737,0.016283199191093445,-0.006613999605178833,-0.0040639787912368774,0.0014639049768447876,0.004593029618263245,1387,4,848,0,6,5521.43896484375,102.56916809082031,-424.2658996582031,28.7609920501709,103.53957138061524,64.3366135567093,342322.3125,621.5393676757812,212.70570373535156,211.22366333007812,126.13131713867188,126.13131713867188,-1.0649290084838867,1,0,0,0,0,2526.117431640625,0,0,255,0,0,0,3,-114,0,0
2025-12-08T21:28:12.211373Z,true,3975833,9499.9951171875,1028.0244140625,5301.4296875,-5.091073036193848,0.0003409534692764282,5.1848273277282715,-0.35219764709472656,-0.07719060778617859,28.92469024658203,-0.0032614474184811115,-0.21205325424671173,-0.01791653037071228,-2.7547242641448975,-0.0060614789836108685,0.054071735590696335,0.24114304780960083,0.28546059131622314,0.31452712416648865,0.35464540123939514,0.6034346222877502,0.3497861623764038,-0.003952379338443279,-0.006337023340165615,98.4641342163086,97.70010375976562,93.33684539794922,94.31658935546875,0,0,0,0,0,0,0,0,0,0,0,0,-0.5565369725227356,-0.4702363908290863,0.010148298926651478,0.006451067049056292,0.8208938837051392,0.5860653519630432,0.010890788398683071,0.00904290471225977,-0.006524786353111267,-0.0028557926416397095,0.0006944239139556885,0.003948822617530823,1387,4,848,0,6,5521.08251953125,102.57189178466797,-425.16046142578125,28.926939010620117,104.13698043823243,64.70782695041657,340815.5625,614.3224487304688,212.70655822753906,211.22918701171875,126.11908721923828,126.11908721923828,0.36455440521240234,1,0,0,0,0,2526.15087890625,0,0,255,0,0,0,3,-113,0,0
2025-12-08T21:28:12.261914Z,true,3975866,9499.9951171875,1028.0244140625,5327.66748046875,-6.772332191467285,0.18294133245944977,4.618268966674805,-0.39561939239501953,-0.07248833775520325,29.0550479888916,-0.014710691757500172,-0.27181902527809143,-0.01872187852859497,-2.762896776199341,-0.005928414408117533,0.05348581448197365,0.2495073676109314,0.3139704763889313,0.30121877789497375,0.34579914808273315,0.6272997856140137,0.32800740003585815,-0.004102649632841349,-0.1413680911064148,98.98107147216797,98.15403747558594,93.65589141845703,94.92101287841797,0,0,0,0,0,0,0,0,0,0,0,0,-0.5656806230545044,-0.46731433272361755,-0.008619455620646477,-0.009455631487071514,0.8446890711784363,0.5709391832351685,0.00954603310674429,0.14168396592140198,-0.005832314491271973,-0.0004954934120178223,-0.00038515031337738037,0.0032312124967575073,1387,4,848,0,6,5520.73291015625,102.57451629638672,-426.0626525878906,29.057830810546875,104.60819091796876,65.00062405334474,341673.5,612.6826782226562,212.72145080566406,211.25143432617188,126.10492706298828,126.10492706298828,1.7093820571899414,1,0,0,0,0,2526.184326171875,0,0,255,0,0,0,3,-113,0,0
2025-12-08T21:28:12.285457Z,true,3975899,9499.9951171875,1028.0244140625,5357.83740234375,-7.871441841125488,0.3944401741027832,4.3913726806640625,-0.39811038970947266,-0.07046210765838623,29.208507537841797,-0.028144653886556625,-0.3290049433708191,-0.013752581551671028,-2.773033618927002,-0.006130984518676996,0.05302036926150322,0.26500704884529114,0.3413712680339813,0.29223787784576416,0.3523652255535126,0.6398015022277832,0.3173426687717438,-0.004159623757004738,-0.00614327285438776,99.51461029052734,98.73681640625,94.01969146728516,95.55534362792969,0,0,0,0,0,0,0,0,0,0,0,0,-0.5409539341926575,-0.4450434446334839,-0.04075644537806511,-0.03849406912922859,0.837840735912323,0.5465986132621765,0.0409681610763073,0.03898118808865547,-0.004549115896224976,0.0017729848623275757,-0.0011136829853057861,0.003763854503631592,1387,4,848,0,6,5520.390625,102.57727813720703,-426.9725646972656,29.211305618286133,105.16070022583008,65.34393798976899,351650.8125,627.1197509765625,212.7388153076172,211.2750244140625,126.09105682373047,126.09105682373047,2.9792566299438477,1,0,0,0,0,2526.2177734375,0,0,255,0,0,0,3,-113,0,0
2025-12-08T21:28:12.310857Z,true,3975932,9499.9951171875,1028.0244140625,5389.5205078125,-8.172581672668457,0.5834541320800781,4.794775009155273,-0.3511972427368164,-0.07393476366996765,29.378692626953125,-0.035078611224889755,-0.3759578764438629,-0.008703697472810745,-2.7849526405334473,-0.006589900236576796,0.05271051079034805,0.27560412883758545,0.36233580112457275,0.2972308099269867,0.3715008497238159,0.6577602624893188,0.30194637179374695,-0.00453803688287735,-0.005779288709163666,100.13399505615234,99.289794921875,94.46797943115234,96.23218536376953,0,0,0,0,0,0,0,0,0,0,0,0,-0.4185316860675812,-0.34469762444496155,-0.08307383954524994,-0.07816838473081589,0.7796264290809631,0.45824453234672546,0.0831976979970932,0.0783817395567894,-0.003671795129776001,0.0035086125135421753,-0.000708654522895813,0.00531613826751709,1387,4,848,0,6,5520.0556640625,102.58045196533203,-427.8912658691406,29.38088607788086,105.7711898803711,65.72327930305481,356375.78125,631.7437133789062,212.75364685058594,211.2930145263672,126.08173370361328,126.08173370361328,4.193947792053223,1,0,0,0,0,2526.251220703125,0,0,255,0,0,0,3,-45,0,0
2025-12-08T21:28:12.42615Z,true,3975966,9499.9951171875,1028.0244140625,5405.5947265625,-6.843462944030762,0.6260890364646912,5.268712043762207,-0.12436389923095703,-0.0866512656211853,29.577678680419922,-0.03176640346646309,-0.35262531042099,0.03327231854200363,-2.7975070476531982,-0.007086541038006544,0.05318713188171387,0.27794796228408813,0.37391331791877747,0.31306254863739014,0.39492884278297424,0.5093165636062622,0.34740743041038513,-0.0075318701565265656,-0.004301692359149456,99.87248229980469,100.14608764648438,95.13549041748047,96.83061981201172,0,0,0,0,0,0,0,0,0,0,0,0,0.17712031304836273,0.17404912412166595,-0.15112154185771942,-0.14811384677886963,0.539235532283783,0.38856789469718933,0.15130911767482758,0.14817629754543304,-0.003477752208709717,0.004467099905014038,0.0005756169557571411,0.007216617465019226,1387,4,848,0,6,5519.7265625,102.58409881591797,-428.818359375,29.578067779541016,106.48104400634766,66.16436293876649,404830.84375,715.7130737304688,212.75404357910156,211.28147888183594,126.0789566040039,126.0789566040039,5.3736162185668945,1,0,0,0,0,2526.28466796875,0,0,255,0,0,0,3,0,0,0
2025-12-08T21:28:12.426225Z,true,3975999,9499.9951171875,1028.0244140625,5452.27685546875,-5.234840393066406,0.5234041810035706,5.698269367218018,0.0696706771850586,-0.09897136688232422,29.78411102294922,-0.014975987374782562,-0.2841111421585083,0.02110704779624939,-2.8080520629882812,-0.00730487797409296,0.054196130484342575,0.27672043442726135,0.35640817880630493,0.34003376960754395,0.4119551181793213,0.5385085940361023,0.3771072030067444,-0.0071349600329995155,-0.004001209046691656,100.8804702758789,100.8654556274414,95.94355010986328,97.31266021728516,0,0,0,0,0,0,0,0,0,0,0,0,0.08373137563467026,0.08315414935350418,-0.180453360080719,-0.17642194032669067,0.5449792742729187,0.38616636395454407,0.18059435486793518,0.17646731436252594,-0.003579378128051758,0.0030178725719451904,0.002763524651527405,0.008597791194915771,1387,4,848,0,6,5519.39794921875,102.58814239501953,-429.75323486328125,29.78435707092285,107.22368545532227,66.62581970623017,394353.4375,691.0872192382812,212.7400665283203,211.24990844726562,126.08753204345703,126.08753204345703,6.59708309173584,1,0,0,0,0,2526.318115234375,0,0,255,0,0,0,3,0,0,0
2025-12-08T21:28:12.426234Z,true,3976033,9499.9951171875,1028.0244140625,5492.337890625,-5.003263473510742,0.3079442083835602,5.8865461349487305,0.1557607650756836,-0.10309603810310364,29.9831485748291,0.006631562486290932,-0.2224806398153305,0.00881633348762989,-2.8163840770721436,-0.0069550746120512486,0.05471911281347275,0.2725543975830078,0.32721883058547974,0.3556729853153229,0.4240448474884033,0.5471516251564026,0.3996022343635559,-0.0068910312838852406,-0.0039703501388430595,101.67443084716797,101.55384826660156,96.70150756835938,97.77535247802734,0,0,0,0,0,0,0,0,0,0,0,0,0.030381642282009125,0.03235369548201561,-0.17598937451839447,-0.17183148860931396,0.5479944944381714,0.4009098410606384,0.1761242300271988,0.17187735438346863,-0.003924280405044556,0.0006013214588165283,0.0040321797132492065,0.009578511118888855,1387,4,848,0,6,5519.07177734375,102.59210968017578,-430.6954040527344,29.98373031616211,107.9414291381836,67.07180569343568,388259.90625,675.3723754882812,212.72166442871094,211.2169189453125,126.09851837158203,126.09851837158203,7.806361198425293,1,0,0,0,0,2526.3515625,0,0,255,0,0,0,3,0,0,0
2025-12-08T21:28:12.451605Z,true,3976066,9499.9951171875,1028.0244140625,5523.4658203125,-4.991387367248535,0.06153198331594467,5.985185623168945,0.1859149932861328,-0.09801587462425232,30.185731887817383,0.019574269652366638,-0.17018643021583557,0.005393975879997015,-2.8227972984313965,-0.006102388724684715,0.05495798960328102,0.2663675844669342,0.29969024658203125,0.35858452320098877,0.4293566942214966,0.5200598239898682,0.402258038520813,-0.007212132215499878,-0.004641457926481962,102.25775909423828,102.12232208251953,97.45840454101562,98.2815170288086,0,0,0,0,0,0,0,0,0,0,0,0,-0.0005348904523998499,0.0024466949980705976,-0.1582484096288681,-0.15583352744579315,0.520060122013092,0.4022654891014099,0.15841266512870789,0.15590263903141022,-0.004436478018760681,-0.0016777366399765015,0.004268363118171692,0.010009407997131348,1387,4,848,0,6,5518.74853515625,102.59559631347656,-431.6460266113281,30.186466217041016,108.67127838134766,67.52531373954774,402908.21875,696.8408203125,212.70179748535156,211.1851043701172,126.1067123413086,126.1067123413086,8.96566104888916,1,0,0,0,0,2526.385009765625,0,0,255,0,0,0,3,0,0,0
2025-12-08T21:28:12.47854Z,true,3976099,9499.9951171875,1028.0244140625,5563.8837890625,-4.969037055969238,-0.1297854781150818,6.054226875305176,0.1848611831665039,-0.0925666093826294,30.39565086364746,0.018933286890387535,-0.12781545519828796,0.0009454032406210899,-2.827638864517212,-0.005163234192878008,0.05508473888039589,0.25678256154060364,0.28082457184791565,0.354377418756485,0.40584293007850647,0.5155349969863892,0.4090408384799957,-0.007297398056834936,-0.005223442334681749,103.0494384765625,102.826171875,98.24049377441406,98.85963439941406,0,0,0,0,0,0,0,0,0,0,0,0,-0.015825899317860603,-0.012694933451712132,-0.13354937732219696,-0.1337203085422516,0.5157778263092041,0.4092377722263336,0.1337485909461975,0.13382229208946228,-0.00523000955581665,-0.0032396018505096436,0.003927081823348999,0.008101969957351685,1387,4,848,0,6,5518.42822265625,102.59843444824219,-432.6051025390625,30.396352767944336,109.42686996459962,67.9948173607254,418092.375,717.9867553710938,212.68064880371094,211.15545654296875,126.11127471923828,126.11127471923828,10.103611946105957,1,0,0,0,0,2526.41845703125,0,0,255,0,0,0,3,0,0,0
2025-12-08T21:28:12.512855Z,true,3976133,9499.9951171875,1028.0244140625,5606.6416015625,-4.059384822845459,-0.3452121317386627,6.3737382888793945,0.16572856903076172,-0.09653031826019287,30.608314514160156,0.01158985123038292,-0.09483513981103897,-0.0012211333960294724,-2.8312506675720215,-0.004456984344869852,0.055085688829422,0.23720107972621918,0.27092331647872925,0.34674957394599915,0.37760165333747864,0.5248492956161499,0.41187939047813416,-0.007082865573465824,-0.005537953693419695,103.93811798095703,103.51960754394531,99.02169799804688,99.48165893554688,0,0,0,0,0,0,0,0,0,0,0,0,-0.021548733115196228,-0.018390394747257233,-0.10726529359817505,-0.10891301184892654,0.5252914428710938,0.41228973865509033,0.1074988842010498,0.10905371606349945,-0.006851136684417725,-0.004059314727783203,0.003308311104774475,0.005811035633087158,1387,4,848,0,6,5518.10986328125,102.6004638671875,-433.57208251953125,30.608917236328125,110.19210205078126,68.47031132263184,424576.1875,723.5938720703125,212.65834045410156,211.12753295898438,126.11273956298828,126.11273956298828,11.232537269592285,1,0,0,0,0,2526.451904296875,0,0,255,0,0,0,3,0,0,0
2025-12-08T21:28:12.617309Z,true,3976166,9499.9951171875,1028.0244140625,5647.82177734375,-4.39422607421875,-0.3411630392074585,6.229977607727051,0.13491344451904297,-0.10090512037277222,30.82427406311035,0.0050553628243505955,-0.06868205964565277,-0.00006828969344496727,-2.8339059352874756,-0.004052404314279556,0.055066801607608795,0.22389081120491028,0.2645527422428131,0.34013664722442627,0.35750091075897217,0.5187071561813354,0.4194643795490265,-0.0068908692337572575,-0.0056780194863677025,104.7108154296875,104.27067565917969,99.79585266113281,100.1297607421875,0,0,0,0,0,0,0,0,0,0,0,0,-0.02083364874124527,-0.01821637526154518,-0.08161444216966629,-0.08341414481401443,0.5191254019737244,0.41985973715782166,0.0819048285484314,0.08360717445611954,-0.007953077554702759,-0.004586726427078247,0.0027718693017959595,0.004180461168289185,1387,4,848,0,6,5517.79345703125,102.60176849365234,-434.547119140625,30.82473373413086,110.9690414428711,68.95307987922669,434058.65625,734.341064453125,212.63548278808594,211.10134887695312,126.1119384765625,126.1119384765625,12.344758033752441,1,0,0,0,0,2526.4853515625,0,0,255,0,0,0,3,0,0,0
2025-12-08T21:28:12.617388Z,true,3976200,9499.9951171875,1028.0244140625,5685.46142578125,-3.9443869590759277,-0.25303328037261963,6.316802501678467,0.10159969329833984,-0.10405263304710388,31.04543113708496,-0.003218640573322773,-0.04917788505554199,0.004099241923540831,-2.8358237743377686,-0.003913841210305691,0.05513790622353554,0.21977820992469788,0.265428751707077,0.3256528377532959,0.3478553891181946,0.4984953701496124,0.41920581459999084,-0.0069674039259552956,-0.00607148464769125,105.37431335449219,104.99992370605469,100.57179260253906,100.81099700927734,0,0,0,0,0,0,0,0,0,0,0,0,-0.01719963178038597,-0.015243001282215118,-0.06058472767472267,-0.062095869332551956,0.49879202246665955,0.41948285698890686,0.0609840452671051,0.0623919852077961,-0.008293554186820984,-0.0045142024755477905,0.0015969425439834595,0.003398016095161438,1387,4,848,0,6,5517.47802734375,102.6026382446289,-435.5302429199219,31.045772552490234,111.76478118896485,69.44753045356751,450480.875,757.0457763671875,212.61260986328125,211.07708740234375,126.10907745361328,126.10907745361328,13.44157886505127,1,0,0,0,0,2526.518798828125,0,0,255,0,0,0,3,0,0,0
2025-12-08T21:28:12.61948Z,true,3976233,9499.9951171875,1028.0244140625,5724.5244140625,-3.2624330520629883,-0.07144850492477417,6.534163475036621,0.0696115493774414,-0.10722318291664124,31.275583267211914,-0.01657256670296192,-0.03445328399538994,0.008128832094371319,-2.8372042179107666,-0.004175173584371805,0.05536271259188652,0.23626549541950226,0.28001677989959717,0.3086550235748291,0.3447129726409912,0.4721028506755829,0.420627623796463,-0.007174031343311071,-0.006476310547441244,106.01754760742188,105.80213165283203,101.37321472167969,101.54109191894531,0,0,0,0,0,0,0,0,0,0,0,0,-0.012323511764407158,-0.011039863340556622,-0.04337513446807861,-0.04411419481039047,0.4722636640071869,0.4207724630832672,0.043964408338069916,0.04458704963326454,-0.006928592920303345,-0.003306478261947632,0.00021807849407196045,0.003143101930618286,1387,4,848,0,6,5517.1630859375,102.60344696044922,-436.52142333984375,31.275846481323242,112.59304733276367,69.96219202793122,471855.96875,787.5208129882812,212.5899200439453,211.05404663085938,126.10403442382812,126.10403442382812,14.543753623962402,1,0,0,0,0,2526.55224609375,0,0,255,0,0,0,3,0,0,0
2025-12-08T21:28:12.65336Z,true,3976266,9499.9951171875,1028.0244140625,5766.4287109375,-2.4779059886932373,0.22107473015785217,6.874688148498535,0.04108428955078125,-0.11079874634742737,31.516685485839844,-0.03531030938029289,-0.02344958297908306,0.011075621470808983,-2.838193893432617,-0.005006894469261169,0.055692482739686966,0.2678026556968689,0.30554765462875366,0.3059246242046356,0.347478449344635,0.4468967318534851,0.41866782307624817,-0.007327382452785969,-0.006781297270208597,106.7320785522461,106.63813018798828,102.211181640625,102.3253173828125,0,0,0,0,0,0,0,0,0,0,0,0,-0.007322984281927347,-0.006396704353392124,-0.02864033356308937,-0.029388904571533203,0.44695672392845154,0.418716698884964,0.029562801122665405,0.03016112931072712,-0.004317671060562134,-0.0011928081512451172,-0.0000034123659133911133,0.0033674389123916626,1387,4,848,0,6,5516.84765625,102.60470581054688,-437.52081298828125,31.516904830932617,113.46085739135742,70.50142509250641,500070.6875,828.6844482421875,212.56773376464844,211.03208923339844,126.0974349975586,126.0974349975586,15.679736137390137,1,0,0,0,0,2526.585693359375,0,0,255,0,0,0,3,0,0,0
2025-12-08T21:28:12.680089Z,true,3976299,9499.9951171875,1028.0244140625,5814.271484375,-2.0167129039764404,0.6090644001960754,7.0955963134765625,0.01708984375,-0.11839407682418823,31.763553619384766,-0.05223260074853897,-0.015270060859620571,0.012482758611440659,-2.8389036655426025,-0.006467957049608231,0.05610053986310959,0.2940109968185425,0.3239455223083496,0.3178350627422333,0.3576302230358124,0.4390750229358673,0.42646270990371704,-0.007154227700084448,-0.006774920504540205,107.58071899414062,107.55978393554688,103.06066131591797,103.13482666015625,0,0,0,0,0,0,0,0,0,0,0,0,-0.002903766930103302,-0.0019464724464341998,-0.015949664637446404,-0.018074888736009598,0.43908461928367615,0.4264671504497528,0.017480697482824326,0.01930287852883339,-0.0021479129791259766,0.00033032894134521484,0.0009627640247344971,0.004190951585769653,1387,4,848,0,6,5516.53125,102.60701751708984,-438.5284423828125,31.763776779174805,114.3495964050293,71.0536628284073,514154.53125,845.0615844726562,212.5456085205078,211.0107421875,126.08972930908203,126.08972930908203,16.86590576171875,1,0,0,0,0,2526.619140625,0,0,255,0,0,0,3,0,0,0
2025-12-08T21:28:12.716955Z,true,3976333,9499.9951171875,1028.0244140625,5864.8515625,-1.2174139022827148,0.9678478240966797,7.361349105834961,-0.0013246536254882812,-0.12847712635993958,32.011009216308594,-0.06141950935125351,-0.00985442940145731,0.012469392269849777,-2.839416980743408,-0.008383662439882755,0.056521691381931305,0.30956700444221497,0.33233630657196045,0.3597087264060974,0.3926618695259094,0.44400522112846375,0.43845096230506897,-0.006765634287148714,-0.006548241712152958,108.49540710449219,108.51664733886719,103.89425659179688,103.94173431396484,0,0,0,0,0,0,0,0,0,0,0,0,0.0007726714829914272,0.002046243753284216,-0.004662759136408567,-0.01130545325577259,0.4440058767795563,0.438455730676651,0.00821675918996334,0.013064943253993988,-0.0008600503206253052,0.0010249912738800049,0.0043595582246780396,0.007032722234725952,1387,4,848,0,6,5516.2138671875,102.6108627319336,-439.54425048828125,32.011268615722656,115.24056701660156,71.60728721725464,519144.6875,845.9406127929688,212.52381896972656,210.99009704589844,126.08161163330078,126.08161163330078,18.081188201904297,1,0,0,0,0,2526.652587890625,0,0,255,0,0,0,3,0,0,0
2025-12-08T21:28:12.788525Z,true,3976366,9499.9951171875,1028.0244140625,5917.923828125,-1.2748324871063232,1.2891629934310913,7.265303611755371,-0.014255523681640625,-0.13801157474517822,32.2540283203125,-0.05983366817235947,-0.006764575373381376,0.011907855048775673,-2.8397998809814453,-0.010414733551442623,0.05693052336573601,0.31489256024360657,0.3321867287158966,0.396950364112854,0.4208853244781494,0.4607484042644501,0.46025708317756653,-0.006290439050644636,-0.006198498886078596,109.47515106201172,109.50070190429688,104.69096374511719,104.72306823730469,0,0,0,0,0,0,0,0,0,0,0,0,0.0035622420255094767,0.005348046310245991,0.0033877301029860973,-0.007264067884534597,0.4607621729373932,0.4602881669998169,0.007144672330468893,0.009549244306981564,-0.0004191547632217407,0.0010126084089279175,0.0073806047439575195,0.009322211146354675,1387,4,848,0,6,5515.89453125,102.6165771484375,-440.5682373046875,32.25432586669922,116.11557312011719,72.15099170425415,512756.0625,828.0490112304688,212.50233459472656,210.9698944091797,126.0736083984375,126.0736083984375,19.288414001464844,1,0,0,0,0,2526.68603515625,0,0,255,0,0,0,3,0,0,0
