timestamp,isRaceOn,timestampMS,engine_max_rpm,engine_idle_rpm,engine_current_rpm,accel_x,accel_y,accel_z,vel_x,vel_y,vel_z,ang_vel_x,ang_vel_y,ang_vel_z,yaw,pitch,roll,norm_susp_fl,norm_susp_fr,norm_susp_rl,norm_susp_rr,tire_slip_fl,tire_slip_fr,tire_slip_rl,tire_slip_rr,wheel_rot_fl,wheel_rot_fr,wheel_rot_rl,wheel_rot_rr,wheel_on_rumble_fl,wheel_on_rumble_fr,wheel_on_rumble_rl,wheel_on_rumble_rr,wheel_in_puddle_fl,wheel_in_puddle_fr,wheel_in_puddle_rl,wheel_in_puddle_rr,surface_rumble_fl,surface_rumble_fr,surface_rumble_rl,surface_rumble_rr,tire_slip_angle_fl,tire_slip_angle_fr,tire_slip_angle_rl,tire_slip_angle_rr,tire_combined_slip_fl,tire_combined_slip_fr,tire_combined_slip_rl,tire_combined_slip_rr,susp_travel_fl,susp_travel_fr,susp_travel_rl,susp_travel_rr,car_ordinal,car_class,car_performance_index,drivetrain_type,num_cylinders,pos_x,pos_y,pos_z,speed_mps,speed_kph,speed_mph,power,torque,tire_temp_fl,tire_temp_fr,tire_temp_rl,tire_temp_rr,boost,fuel,distance,best_lap,last_lap,current_lap,current_race_time,lap_number,race_position,accel,brake,clutch,handbrake,gear,steer,norm_driving_line,norm_ai_brake_diff
2025-12-08T22:14:46.718025Z,true,6745510,8999.9951171875,1099.9993896484375,3813.45654296875,-0.14026808738708496,-0.027511805295944214,5.609096527099609,0.00021588802337646484,-0.027381394058465958,4.794632911682129,-0.001571417786180973,-0.00020228985522408038,0.0003033254761248827,-2.004021644592285,-0.004874164704233408,-0.004462414421141148,0.26925504207611084,0.28709396719932556,0.4166342616081238,0.4261058270931244,-0.029132049530744553,-0.023950466886162758,0.2987758219242096,0.7900763154029846,15.060147285461426,15.05495548248291,15.970368385314941,15.409041404724121,0,0,0,0,0,0,0,0,0,0,0,0,-0.0029504091944545507,-0.0032039685174822807,0.006349213421344757,-0.002137130359187722,0.029281072318553925,0.02416382171213627,0.29884326457977295,0.7900791764259338,-0.006773054599761963,-0.004810988903045654,0.0067827701568603516,0.007867619395256042,364,3,800,1,4,-5052.49267578125,179.48863220214844,-352.3165588378906,4.794712066650391,17.260963439941406,10.725483210372925,174654.171875,436.6604309082031,175.27940368652344,184.9696502685547,196.7333984375,196.7333984375,14.494099617004395,1,0,0,0,0,352.6455993652344,0,0,255,0,0,0,3,0,0,0
2025-12-08T22:14:46.75634Z,true,6745543,8999.9951171875,1099.9993896484375,3740.911865234375,-0.09761643409729004,-0.024328164756298065,5.633183479309082,-0.00007140636444091797,-0.028421901166439056,4.984560966491699,-0.00010320509318262339,0.0011503390269353986,0.0005920994444750249,-2.0040087699890137,-0.004889517091214657,-0.004446537233889103,0.2691071033477783,0.2874627411365509,0.41637900471687317,0.4259413778781891,-0.038573116064071655,-0.036531876772642136,0.37842857837677,0.15221302211284637,15.68168830871582,15.681621551513672,16.25067710876465,17.27460289001465,0,0,0,0,0,0,0,0,0,0,0,0,-0.00041140365647152066,-0.0007060686475597322,0.003390902653336525,-0.005050332751125097,0.03857531026005745,0.03653869777917862,0.37844377756118774,0.152296781539917,-0.0067893266677856445,-0.004770427942276001,0.0067535340785980225,0.007848784327507019,364,3,800,1,4,-5052.64111328125,179.48849487304688,-352.3851013183594,4.984642505645752,17.94471302032471,11.15034620657921,170472.015625,434.4576721191406,175.2551727294922,184.9380340576172,196.76283264160156,196.76283264160156,14.494139671325684,1,0,0,0,0,352.678955078125,0,0,255,0,0,0,3,0,0,0
2025-12-08T22:14:46.758714Z,true,6745582,8999.9951171875,1099.9993896484375,3667.975830078125,0.10781979560852051,-0.027012981474399567,6.0817060470581055,-0.00024271011352539062,-0.029459942132234573,5.182827949523926,-0.00010081019718199968,0.0009780132677406073,0.0009280317462980747,-2.0039987564086914,-0.004899859894067049,-0.004419404082000256,0.26904410123825073,0.28758683800697327,0.41579681634902954,0.4254598915576935,-0.02266363985836506,-0.026276910677552223,0.6672043800354004,0.16843673586845398,16.298568725585938,16.300865173339844,16.768383026123047,17.652719497680664,0,0,0,0,0,0,0,0,0,0,0,0,0.0005788573180325329,0.00026141374837607145,0.0020003346726298332,-0.006355529185384512,0.022671030834317207,0.026278210803866386,0.6672073602676392,0.1685566008090973,-0.006796255707740784,-0.0047567784786224365,0.006686851382255554,0.007793635129928589,364,3,800,1,4,-5052.79638671875,179.48837280273438,-352.4568786621094,5.1829118728637695,18.65848274230957,11.593862884883881,166088.421875,431.784423828125,175.23072814941406,184.90634155273438,196.79212951660156,196.79212951660156,14.494166374206543,1,0,0,0,0,352.7125244140625,0,0,255,0,0,0,3,0,0,0
2025-12-08T22:14:46.832658Z,true,6745610,8999.9951171875,1099.9993896484375,3596.0791015625,0.10165095329284668,-0.02498207613825798,6.047565460205078,-0.0003311634063720703,-0.030652713030576706,5.3762335777282715,-0.0009274770272895694,-0.00011515981168486178,0.0012219762429594994,-2.003990650177002,-0.004907630849629641,-0.00438166968524456,0.2694067656993866,0.2877929210662842,0.41526105999946594,0.4249626398086548,-0.03399423137307167,-0.03023083135485649,0.3202962279319763,0.482860267162323,16.89850425720215,16.895456314086914,17.677881240844727,17.14175796508789,0,0,0,0,0,0,0,0,0,0,0,0,-0.0015726685523986816,-0.001868691761046648,0.00495104119181633,-0.003344976343214512,0.03403059020638466,0.030288532376289368,0.3203344941139221,0.4828718602657318,-0.0067563652992248535,-0.004734113812446594,0.0066254884004592896,0.007736682891845703,364,3,800,1,4,-5052.95556640625,179.4882354736328,-352.5304870605469,5.376321315765381,19.354756736755373,12.026508204088213,161975.015625,429.4083557128906,175.20652770996094,184.8749542236328,196.8153533935547,196.8153533935547,14.49417781829834,1,0,0,0,0,352.7456970214844,0,0,255,0,0,0,3,0,0,0
2025-12-08T22:14:46.832682Z,true,6745644,8999.9951171875,1099.9993896484375,3523.885498046875,-0.08390259742736816,-0.03570270910859108,5.621119499206543,-0.0004000663757324219,-0.0316428616642952,5.560001373291016,0.00006929726805537939,-0.0004626483714673668,0.0015762413386255503,-2.0039806365966797,-0.004929540678858757,-0.004335218574851751,0.2699057459831238,0.288135826587677,0.4149051010608673,0.42459824681282043,-0.022145118564367294,-0.015549142844974995,0.11664464324712753,1.2166000604629517,17.48766326904297,17.478748321533203,19.378238677978516,18.574180603027344,0,0,0,0,0,0,0,0,0,0,0,0,-0.0040614791214466095,-0.004332431126385927,0.007705566938966513,-0.0005514831282198429,0.022514481097459793,0.016141431406140327,0.11689887940883636,1.2166001796722412,-0.006701484322547913,-0.004696398973464966,0.006584718823432922,0.007694944739341736,364,3,800,1,4,-5053.12109375,179.4880828857422,-352.6072692871094,5.560091495513916,20.0163293838501,12.4375910699749,157655.703125,426.50238037109375,175.18263244628906,184.84408569335938,196.84568786621094,196.84568786621094,14.494179725646973,1,0,0,0,0,352.7790832519531,0,0,255,0,0,0,3,0,0,0
2025-12-08T22:14:46.854993Z,true,6745678,8999.9951171875,1099.9993896484375,3451.92724609375,0.004972934722900391,-0.018960051238536835,5.708110332489014,-0.0006182193756103516,-0.03277292847633362,5.751380920410156,-0.001562138320878148,0.0002909025934059173,0.0018991082906723022,-2.003967761993408,-0.0049728103913366795,-0.004277227912098169,0.2697763741016388,0.28854021430015564,0.4148938059806824,0.42452433705329895,-0.03682650998234749,-0.03873981907963753,0.2735435664653778,0.23914813995361328,18.10072898864746,18.10025405883789,18.992036819458008,19.099742889404297,0,0,0,0,0,0,0,0,0,0,0,0,-0.0007107940618880093,-0.0010243699653074145,0.0033076901454478502,-0.004911644849926233,0.03683336824178696,0.038753360509872437,0.27356356382369995,0.23919858038425446,-0.006715714931488037,-0.004651919007301331,0.006583422422409058,0.00768648087978363,364,3,800,1,4,-5053.29248046875,179.48794555664062,-352.6866455078125,5.751474380493164,20.70530776977539,12.86570310070038,153324.84375,423.4201965332031,175.15818786621094,184.8126678466797,196.8737335205078,196.8737335205078,14.494179725646973,1,0,0,0,0,352.81243896484375,0,0,255,0,0,0,3,0,0,0
2025-12-08T22:14:46.888231Z,true,6745710,8999.9951171875,1099.9993896484375,3380.1845703125,0.030168771743774414,-0.03720933943986893,5.753218173980713,-0.0008115768432617188,-0.03381923586130142,5.939897060394287,-0.0010288016637787223,0.00032718919101171196,0.00238680187612772,-2.003957748413086,-0.005021307617425919,-0.004205488599836826,0.26940053701400757,0.2887861132621765,0.4148290157318115,0.42443159222602844,-0.02326141484081745,-0.016279149800539017,0.3286917805671692,1.2062864303588867,18.66847801208496,18.661148071289062,19.396577835083008,19.75874137878418,0,0,0,0,0,0,0,0,0,0,0,0,-0.0032116377260535955,-0.003497908590361476,0.006647712551057339,-0.0015704601537436247,0.023482078686356544,0.01665070839226246,0.32875901460647583,1.2062873840332031,-0.0067570507526397705,-0.004624873399734497,0.0065760016441345215,0.007675856351852417,364,3,800,1,4,-5053.4697265625,179.48780822753906,-352.76861572265625,5.939993381500244,21.383976173400878,13.287408794813157,148990.109375,420.1700744628906,175.13421630859375,184.78189086914062,196.8927001953125,196.8927001953125,14.494179725646973,1,0,0,0,0,352.8457946777344,0,0,255,0,0,0,3,0,0,0
2025-12-08T22:14:46.964695Z,true,6745743,8999.9951171875,1099.9993896484375,3308.609375,0.05664992332458496,-0.019633695483207703,5.712891578674316,-0.0009920597076416016,-0.03491190820932388,6.1294941902160645,-0.0016514442395418882,-0.00015555742720607668,0.002706292551010847,-2.0039501190185547,-0.005052828695625067,-0.004120165016502142,0.2691125273704529,0.28887417912483215,0.4149787425994873,0.42436614632606506,-0.03050396405160427,-0.033730752766132355,0.4636770784854889,0.5372389554977417,19.26349449157715,19.26316261291504,19.618715286254883,19.42862892150879,0,0,0,0,0,0,0,0,0,0,0,0,-0.0005636659916490316,-0.0008844496333040297,0.003288891166448593,-0.0049261674284935,0.03050917200744152,0.03374234586954117,0.4636887311935425,0.5372615456581116,-0.006788730621337891,-0.004615187644958496,0.00659315288066864,0.007668361067771912,364,3,800,1,4,-5053.65283203125,179.4876708984375,-352.853271484375,6.129593849182129,22.066537857055664,13.711533664989473,144629.625,416.6826171875,175.10987854003906,184.75076293945312,196.9151611328125,196.9151611328125,14.494179725646973,1,0,0,0,0,352.8791809082031,0,0,255,0,0,0,3,0,0,0
2025-12-08T22:14:46.964741Z,true,6745777,8999.9951171875,1099.9993896484375,3237.326904296875,0.10529947280883789,-0.037975285202264786,5.848349571228027,-0.0011968612670898438,-0.035931359976530075,6.310638904571533,-0.0017347263637930155,-0.00022534395975526422,0.0030339653603732586,-2.003943920135498,-0.005083850584924221,-0.0040242429822683334,0.26892974972724915,0.28883570432662964,0.4149166941642761,0.42419686913490295,-0.0432717464864254,-0.04310232773423195,0.2677975594997406,0.3823663890361786,19.856876373291016,19.85508155822754,20.76561164855957,20.244821548461914,0,0,0,0,0,0,0,0,0,0,0,0,-0.0009868175256997347,-0.0013054541777819395,0.004028854425996542,-0.004175757989287376,0.043282996863126755,0.04312209412455559,0.2678278684616089,0.3823891878128052,-0.006808832287788391,-0.004619419574737549,0.006586045026779175,0.007648974657058716,364,3,800,1,4,-5053.84130859375,179.48753356933594,-352.94049072265625,6.310741901397705,22.71867084503174,14.116750988912584,140276.15625,413.0254821777344,175.08592224121094,184.7201690673828,196.9445343017578,196.9445343017578,14.494179725646973,1,0,0,0,0,352.91253662109375,0,0,255,0,0,0,3,0,0,0
2025-12-08T22:14:47.003484Z,true,6745810,8999.9951171875,1099.9993896484375,3166.370361328125,0.15123462677001953,-0.02438340149819851,5.9345879554748535,-0.001432180404663086,-0.036854274570941925,6.4876813888549805,-0.0005270541878417134,0.0008162984740920365,0.0032769194804131985,-2.003934383392334,-0.005117895547300577,-0.003917728550732136,0.2693237364292145,0.2890354096889496,0.4148938059806824,0.424030601978302,-0.03758513554930687,-0.03601965680718422,0.2114792764186859,0.10178884118795395,20.44002914428711,20.4394588470459,21.57712745666504,22.246248245239258,0,0,0,0,0,0,0,0,0,0,0,0,-0.000365344894817099,-0.0006892208475619555,0.0036445739679038525,-0.00455878721550107,0.03758690878748894,0.0360262505710125,0.21151068806648254,0.10189087688922882,-0.006765499711036682,-0.004597455263137817,0.006583422422409058,0.0076299309730529785,364,3,800,1,4,-5054.03564453125,179.48741149902344,-353.0302734375,6.487785816192627,23.35602893829346,14.512787603673935,135947.515625,409.2375793457031,175.06182861328125,184.68955993652344,196.97178649902344,196.97178649902344,14.494179725646973,1,0,0,0,0,352.9458923339844,0,0,255,0,0,0,3,0,0,0
2025-12-08T22:14:47.032161Z,true,6745845,8999.9951171875,1099.9993896484375,3095.690185546875,0.023821592330932617,-0.011523661203682423,5.507771015167236,-0.001493692398071289,-0.037700917571783066,6.674075603485107,-0.00021426600869745016,-0.0003951071703340858,0.0036257675383239985,-2.0039286613464355,-0.005153263453394175,-0.0038021171931177378,0.26938915252685547,0.2892912030220032,0.4149151146411896,0.4239303171634674,-0.023067522794008255,-0.017425280064344406,0.1885240375995636,0.9309468269348145,20.99375343322754,20.986753463745117,22.341201782226562,21.64081382751465,0,0,0,0,0,0,0,0,0,0,0,0,-0.002573263132944703,-0.0028676982037723064,0.006337335333228111,-0.0018864561570808291,0.02321060746908188,0.01765967346727848,0.18863052129745483,0.9309487342834473,-0.006758302450180054,-0.004569321870803833,0.006585866212844849,0.007618442177772522,364,3,800,1,4,-5054.2353515625,179.4873046875,-353.12261962890625,6.674183368682861,24.027060127258302,14.92974774474144,131638.546875,405.30072021484375,175.03753662109375,184.65878295898438,196.996826171875,196.996826171875,14.494179725646973,1,0,0,0,0,352.9792785644531,0,0,255,0,0,0,3,0,0,0
2025-12-08T22:14:47.053646Z,true,6745877,8999.9951171875,1099.9993896484375,3025.39404296875,-0.0725867748260498,-0.032019540667533875,5.3343729972839355,-0.001734018325805664,-0.0384334996342659,6.854128837585449,0.000547518371604383,-0.00010630701581249014,0.0039409310556948185,-2.0039234161376953,-0.005145721603184938,-0.003675913205370307,0.26954197883605957,0.2897796034812927,0.4147084057331085,0.4237183928489685,-0.031857747584581375,-0.029241926968097687,0.20297978818416595,0.286945641040802,21.57615089416504,21.57372283935547,22.78072738647461,22.27220916748047,0,0,0,0,0,0,0,0,0,0,0,0,-0.000935565447434783,-0.00124845071695745,0.0044247922487556934,-0.0037870979867875576,0.031871482729911804,0.02926856465637684,0.20302800834178925,0.2869706451892853,-0.0067414939403533936,-0.004515603184700012,0.006562188267707825,0.007594168186187744,364,3,800,1,4,-5054.43994140625,179.48719787597656,-353.2174987792969,6.854237079620361,24.675253486633302,15.332517092885972,127349.7421875,401.19287109375,175.0129852294922,184.6277618408203,197.0218048095703,197.0218048095703,14.494179725646973,1,0,0,0,0,353.01263427734375,0,0,255,0,0,0,3,0,0,0
2025-12-08T22:14:47.102004Z,true,6745910,8999.9951171875,1099.9993896484375,2955.48779296875,-0.03476428985595703,-0.0335111990571022,5.384896755218506,-0.001880645751953125,-0.03900882601737976,7.035333633422852,0.0011202762834727764,-0.0004523008537944406,0.004298369400203228,-2.003918170928955,-0.0051163253374397755,-0.003537627635523677,0.2697843611240387,0.29025688767433167,0.414406955242157,0.42323988676071167,-0.027224721387028694,-0.023432856425642967,0.2204321026802063,0.5166041851043701,22.132966995239258,22.12889289855957,23.26936912536621,22.358016967773438,0,0,0,0,0,0,0,0,0,0,0,0,-0.0014393043238669634,-0.0017455292399972677,0.005056559108197689,-0.003131867852061987,0.027262741699814796,0.023497778922319412,0.22049009799957275,0.5166136622428894,-0.0067148357629776,-0.004463106393814087,0.00652766227722168,0.0075393617153167725,364,3,800,1,4,-5054.65087890625,179.48709106445312,-353.31494140625,7.035441875457764,25.32759075164795,15.737861348886492,123109.25,396.99395751953125,174.98854064941406,184.5969696044922,197.04315185546875,197.04315185546875,14.494179725646973,1,0,0,0,0,353.0460205078125,0,0,255,0,0,0,3,0,0,0
2025-12-08T22:14:47.120605Z,true,6745944,8999.9951171875,1099.9993896484375,2886.027099609375,-0.13308203220367432,-0.015961410477757454,5.140231609344482,-0.0020432472229003906,-0.039302557706832886,7.212425708770752,0.0020405214745551348,-0.00017981338896788657,0.00455913320183754,-2.003908634185791,-0.005047183949500322,-0.003388125216588378,0.270892858505249,0.29113128781318665,0.41392287611961365,0.42267900705337524,-0.02748614363372326,-0.02429298870265484,0.2453511357307434,0.3947431445121765,22.692502975463867,22.68950080871582,23.68170166015625,23.08662986755371,0,0,0,0,0,0,0,0,0,0,0,0,-0.0010741056175902486,-0.0013849197421222925,0.004578141029924154,-0.0035784910432994366,0.027507122606039047,0.024332433938980103,0.24539384245872498,0.3947593569755554,-0.006592914462089539,-0.004366934299468994,0.0064722150564193726,0.007475122809410095,364,3,800,1,4,-5054.86669921875,179.4869842529297,-353.4148864746094,7.212533950805664,25.96512222290039,16.134005695915224,118923.3125,392.7129211425781,174.96417236328125,184.56637573242188,197.0651092529297,197.0651092529297,14.494179725646973,1,0,0,0,0,353.07940673828125,0,0,255,0,0,0,3,0,0,0
2025-12-08T22:14:47.170029Z,true,6745977,8999.9951171875,1099.9993896484375,2817.096435546875,-0.15110290050506592,-0.01957722380757332,5.032558441162109,-0.002050161361694336,-0.03923436254262924,7.384621620178223,0.003286203369498253,-0.000780813570600003,0.0046230885200202465,-2.003899574279785,-0.004954880103468895,-0.003233999013900757,0.27242311835289,0.29206976294517517,0.41321343183517456,0.42128318548202515,-0.01818159781396389,-0.013797348365187645,0.0942339152097702,0.7985875606536865,23.238386154174805,23.231019973754883,25.095596313476562,23.75545883178711,0,0,0,0,0,0,0,0,0,0,0,0,-0.002382035832852125,-0.0026796215679496527,0.006196239497512579,-0.001860613003373146,0.01833697408437729,0.01405514869838953,0.09443740546703339,0.7985897064208984,-0.006424605846405029,-0.004263713955879211,0.006390959024429321,0.007315248250961304,364,3,800,1,4,-5055.08740234375,179.4868927001953,-353.5172119140625,7.3847270011901855,26.585017204284668,16.519191218042376,114782.7421875,388.3016052246094,174.93975830078125,184.53575134277344,197.0886993408203,197.0886993408203,14.494179725646973,1,0,0,0,0,353.1127624511719,0,0,255,0,0,0,3,0,0,0
2025-12-08T22:14:47.207004Z,true,6746010,8999.9951171875,1099.9993896484375,2748.63671875,-0.07258164882659912,-0.02173016406595707,5.1213507652282715,-0.0020182132720947266,-0.03917425498366356,7.55881929397583,0.003483871463686228,-0.0008166717598214746,0.004461278673261404,-2.0038909912109375,-0.0048491815105080605,-0.0030827182345092297,0.2738279104232788,0.2927837371826172,0.4124108552932739,0.4194939434528351,-0.01806732453405857,-0.014014899730682373,0.09783235192298889,0.7393207550048828,23.787147521972656,23.78022575378418,25.59975814819336,24.21859359741211,0,0,0,0,0,0,0,0,0,0,0,0,-0.0021248820703476667,-0.002425732323899865,0.006001106463372707,-0.0019122512312605977,0.018191847950220108,0.014223276637494564,0.09801623970270157,0.7393232583999634,-0.006270095705986023,-0.004185184836387634,0.006299033761024475,0.007110312581062317,364,3,800,1,4,-5055.31396484375,179.48680114746094,-353.62213134765625,7.558921813964844,27.21211853027344,16.908854562530518,110709.4140625,383.83624267578125,174.9152069091797,184.50503540039062,197.1069793701172,197.1069793701172,14.494172096252441,1,0,0,0,0,353.1461486816406,0,0,255,0,0,0,3,0,0,0
2025-12-08T22:14:47.221775Z,true,6746044,8999.9951171875,1099.9993896484375,2680.878173828125,-0.07365548610687256,-0.008755598217248917,5.087575912475586,-0.0019309520721435547,-0.03910864517092705,7.73037576675415,0.003705817274749279,-0.0008377605117857456,0.00427732290700078,-2.003883123397827,-0.004735075868666172,-0.0029379543848335743,0.2752072215080261,0.2935408055782318,0.41137710213661194,0.4176604747772217,-0.018015369772911072,-0.013804900459945202,0.0924607440829277,0.7348229289054871,24.32851219177246,24.321611404418945,26.1538143157959,24.776819229125977,0,0,0,0,0,0,0,0,0,0,0,0,-0.002061248756945133,-0.0023601269349455833,0.005901058670133352,-0.001849847030825913,0.018132906407117844,0.014005194418132305,0.09264886379241943,0.7348252534866333,-0.00611838698387146,-0.004101917147636414,0.006180629134178162,0.006900310516357422,364,3,800,1,4,-5055.54541015625,179.48672485351562,-353.72930908203125,7.730475425720215,27.829711532592775,17.29260969881058,106708.921875,379.3060607910156,174.89064025878906,184.47439575195312,197.12522888183594,197.12522888183594,14.48448657989502,1,0,0,0,0,353.17950439453125,0,0,255,0,0,0,3,0,0,0
2025-12-08T22:14:47.271987Z,true,6746077,8999.9951171875,1099.9993896484375,2613.564453125,0.03307771682739258,-0.028831230476498604,5.190429210662842,-0.0019135475158691406,-0.039155952632427216,7.900473117828369,0.003804348409175873,-0.0008438866934739053,0.004317821469157934,-2.003875732421875,-0.004615771118551493,-0.002795648528262973,0.2763248085975647,0.2940063178539276,0.4097537398338318,0.41635894775390625,-0.017661763355135918,-0.013627511449158192,0.09538096189498901,0.702390193939209,24.864582061767578,24.857927322387695,26.64974021911621,25.277650833129883,0,0,0,0,0,0,0,0,0,0,0,0,-0.0019909862894564867,-0.0022882374469190836,0.005621138960123062,-0.001953128492459655,0.01777363009750843,0.0138182882219553,0.09554645419120789,0.7023929357528687,-0.005995467305183411,-0.004050716757774353,0.005994692444801331,0.00675123929977417,364,3,800,1,4,-5055.78271484375,179.4866485595703,-353.8388977050781,7.900570392608643,28.442053413391115,17.673101934041977,102721.3984375,374.5206604003906,174.8660430908203,184.44371032714844,197.1417999267578,197.1417999267578,14.436951637268066,1,0,0,0,0,353.2128601074219,0,0,255,0,0,0,3,0,0,0
2025-12-08T22:14:47.496114Z,true,6746111,8999.9951171875,1099.9993896484375,2546.577392578125,-0.07008159160614014,-0.025376155972480774,4.989299774169922,-0.001963376998901367,-0.039318282157182693,8.068476676940918,0.0039368015713989735,-0.0008449327433481812,0.00436478853225708,-2.00386905670166,-0.004491111729294062,-0.0026507643051445484,0.2774485945701599,0.29432183504104614,0.4080587923526764,0.4148169159889221,-0.017389986664056778,-0.013434801250696182,0.0956307128071785,0.6795439124107361,25.394367218017578,25.387853622436523,27.154993057250977,25.791017532348633,0,0,0,0,0,0,0,0,0,0,0,0,-0.0018815543735399842,-0.0021792161278426647,0.005452081561088562,-0.001924716285429895,0.017491480335593224,0.013610395602881908,0.09578600525856018,0.6795466542243958,-0.005871862173080444,-0.004016011953353882,0.005800560116767883,0.006574615836143494,364,3,800,1,4,-5056.02490234375,179.48655700683594,-353.9508972167969,8.068572998046875,29.04686279296875,18.048913682250976,98729.1953125,369.41668701171875,174.84136962890625,184.4130401611328,197.1573486328125,197.1573486328125,14.334263801574707,1,0,0,0,0,353.2462463378906,0,0,255,0,0,0,3,0,0,0
2025-12-08T22:14:47.49617Z,true,6746144,8999.9951171875,1099.9993896484375,2479.8857421875,-0.06584739685058594,-0.03343208134174347,4.908206939697266,-0.0020029544830322266,-0.03960283100605011,8.234308242797852,0.004121379926800728,-0.000851607124786824,0.0043686977587640285,-2.0038623809814453,-0.004360392689704895,-0.0025045836810022593,0.2784697115421295,0.29457274079322815,0.406686007976532,0.41320353746414185,-0.017198357731103897,-0.013309013098478317,0.09416068345308304,0.6567011475563049,25.917434692382812,25.911052703857422,27.660226821899414,26.29508399963379,0,0,0,0,0,0,0,0,0,0,0,0,-0.0017716895090416074,-0.002068636938929558,0.0053125363774597645,-0.0018737465143203735,0.01728937216103077,0.013468819670379162,0.09431043267250061,0.6567038297653198,-0.0057595521211624146,-0.003988415002822876,0.005643323063850403,0.006389826536178589,364,3,800,1,4,-5056.27197265625,179.48643493652344,-354.065185546875,8.234403610229492,29.643852996826173,18.41986681186676,94730.6484375,363.97076416015625,174.8166961669922,184.38235473632812,197.17164611816406,197.17164611816406,14.169072151184082,1,0,0,0,0,353.27960205078125,0,0,255,0,0,0,3,0,0,0
2025-12-08T22:14:47.49618Z,true,6746177,8999.9951171875,1099.9993896484375,2415.2431640625,0.1083533763885498,-0.04209238663315773,5.206808567047119,-0.0019936561584472656,-0.03985162451863289,8.397500038146973,0.004537767264991999,-0.0008853217004798353,0.004319946281611919,-2.0038561820983887,-0.004219559486955404,-0.0023600950371474028,0.27930575609207153,0.2946940064430237,0.405778169631958,0.41226086020469666,-0.016836056485772133,-0.012946977280080318,0.08662937581539154,0.6426095366477966,26.43228530883789,26.425926208496094,28.180423736572266,26.779525756835938,0,0,0,0,0,0,0,0,0,0,0,0,-0.0017072590999305248,-0.0020033151376992464,0.0052397362887859344,-0.0018388881580904126,0.016922397539019585,0.013101049698889256,0.08678769320249557,0.6426121592521667,-0.005667597055435181,-0.003975078463554382,0.005539342761039734,0.006281852722167969,364,3,800,1,4,-5056.5244140625,179.48629760742188,-354.18182373046875,8.397594451904297,30.23134002685547,18.7849149332428,90797.4765625,358.2372131347656,174.79193115234375,184.35166931152344,197.18504333496094,197.18504333496094,13.939507484436035,1,0,0,0,0,353.3129577636719,0,0,255,0,0,0,3,0,0,0
2025-12-08T22:14:47.496187Z,true,6746211,8999.9951171875,1099.9993896484375,2359.710693359375,-0.07252788543701172,-0.04436719790101051,4.689280033111572,-0.002019166946411133,-0.03993692994117737,8.556380271911621,0.005301108583807945,-0.0009234470780938864,0.004374663345515728,-2.0038504600524902,-0.004057643935084343,-0.0022151637822389603,0.2803685963153839,0.29491618275642395,0.40467026829719543,0.4115385413169861,-0.01616988331079483,-0.012234194204211235,0.075056292116642,0.6372741460800171,26.93330192565918,26.926843643188477,28.69441795349121,27.24573516845703,0,0,0,0,0,0,0,0,0,0,0,0,-0.0017073502531275153,-0.0020060823298990726,0.005165418144315481,-0.0018091545207425952,0.016259772703051567,0.012397575192153454,0.0752338245511055,0.6372767090797424,-0.005550697445869446,-0.003950640559196472,0.005412444472312927,0.0061991214752197266,364,3,800,1,4,-5056.78125,179.4861297607422,-354.3006896972656,8.556474685668945,30.803308868408205,19.14032048336029,87318.59375,352.7431945800781,174.7671661376953,184.32095336914062,197.1973876953125,197.1973876953125,13.648337364196777,1,0,0,0,0,353.3463134765625,0,0,255,0,0,0,3,0,0,0
2025-12-08T22:14:47.496194Z,true,6746244,8999.9951171875,1099.9993896484375,2316.441650390625,-0.03608441352844238,-0.046005647629499435,4.672998905181885,-0.0020759105682373047,-0.039835624396800995,8.71044921875,0.0061766477301716805,-0.0009527019574306905,0.004456414375454187,-2.003844976425171,-0.0038670958019793034,-0.002067845780402422,0.28150907158851624,0.29518282413482666,0.4033016264438629,0.4106931686401367,-0.015539208427071571,-0.01157398521900177,0.06503520160913467,0.6309618949890137,27.4188232421875,27.412277221679688,29.182579040527344,27.696699142456055,0,0,0,0,0,0,0,0,0,0,0,0,-0.0016829193336889148,-0.0019875604193657637,0.005090442020446062,-0.0017562831053510308,0.015630073845386505,0.011743403039872646,0.06523411720991135,0.6309643387794495,-0.005425259470939636,-0.00392131507396698,0.00525568425655365,0.0061022937297821045,364,3,800,1,4,-5057.04296875,179.48593139648438,-354.4217529296875,8.710540771484375,31.357946777343752,19.48495707336426,84487.1015625,347.8234558105469,174.7423095703125,184.2902069091797,197.2086181640625,197.2086181640625,13.303545951843262,1,0,0,0,0,353.37969970703125,0,0,255,0,0,0,3,0,0,0
2025-12-08T22:14:47.496202Z,true,6746277,8999.9951171875,1099.9993896484375,2284.996826171875,0.021692872047424316,-0.03283972665667534,4.709601879119873,-0.002115488052368164,-0.03949049115180969,8.859946250915527,0.006941504776477814,-0.0009784671710804105,0.00443993927910924,-2.0038394927978516,-0.0036485730670392513,-0.0019193191546946764,0.2828006148338318,0.2956526577472687,0.4023948311805725,0.40968477725982666,-0.015111890621483326,-0.011144277639687061,0.057121969759464264,0.618462085723877,27.890010833740234,27.883460998535156,29.64769744873047,28.133403778076172,0,0,0,0,0,0,0,0,0,0,0,0,-0.0015990803949534893,-0.0019151599844917655,0.005052132532000542,-0.001686028204858303,0.015196259133517742,0.011307641863822937,0.057344950735569,0.6184644103050232,-0.0052832067012786865,-0.0038696378469467163,0.005151823163032532,0.005986794829368591,364,3,800,1,4,-5057.3095703125,179.4857177734375,-354.5448913574219,8.860033988952637,31.896122360229494,19.819364431247713,82284.0703125,343.5469055175781,174.71742248535156,184.2594451904297,197.2185821533203,197.2185821533203,12.91756534576416,1,0,0,0,0,353.4130554199219,0,0,255,0,0,0,3,0,0,0
2025-12-08T22:14:47.496238Z,true,6746311,8999.9951171875,1099.9993896484375,2263.408447265625,0.08161509037017822,-0.048732176423072815,4.7251715660095215,-0.002097606658935547,-0.038855522871017456,9.005688667297363,0.0074233319610357285,-0.0010036128805950284,0.004331464879214764,-2.0038347244262695,-0.0034083519130945206,-0.0017731426050886512,0.2842297852039337,0.2963552474975586,0.4015730023384094,0.40844038128852844,-0.014842325821518898,-0.010898248292505741,0.051851123571395874,0.60239577293396,28.34952163696289,28.34306526184082,30.095312118530273,28.560117721557617,0,0,0,0,0,0,0,0,0,0,0,0,-0.0015016024699434638,-0.0018355355132371187,0.004987247288227081,-0.0016289077466353774,0.014918090775609016,0.011051742359995842,0.052090417593717575,0.6023979783058167,-0.005126014351844788,-0.0037923604249954224,0.005057692527770996,0.0058442652225494385,364,3,800,1,4,-5057.58056640625,179.48545837402344,-354.670166015625,9.005772590637207,32.42078132629395,20.145372938899996,80603.046875,339.8450927734375,174.69248962402344,184.22865295410156,197.2274627685547,197.2274627685547,12.503630638122559,1,0,0,0,0,353.4464416503906,0,0,255,0,0,0,3,0,0,0
2025-12-08T22:14:47.52248Z,true,6746344,8999.9951171875,1099.9993896484375,2249.484619140625,0.033179283142089844,-0.02932192012667656,4.536978721618652,-0.0020220279693603516,-0.03794640675187111,9.148277282714844,0.007517144083976746,-0.0010144964326173067,0.004109817557036877,-2.0038301944732666,-0.003158245235681534,-0.001633007894270122,0.28597530722618103,0.2972659468650818,0.4006883203983307,0.40710556507110596,-0.014664562419056892,-0.01078228373080492,0.05090656504034996,0.5821431279182434,28.799314498901367,28.793020248413086,30.514379501342773,28.977277755737305,0,0,0,0,0,0,0,0,0,0,0,0,-0.0013807332143187523,-0.0017377466429024935,0.004900834523141384,-0.0015826638555154204,0.014729419723153114,0.010921419598162174,0.051141925156116486,0.5821452736854553,-0.004934027791023254,-0.0036921948194503784,0.004956364631652832,0.0056913793087005615,364,3,800,1,4,-5057.85546875,179.48516845703125,-354.7973937988281,9.148357391357422,32.93408660888672,20.464326583023073,79330.8203125,336.6329345703125,174.66754150390625,184.19789123535156,197.2352752685547,197.2352752685547,12.075356483459473,1,0,0,0,0,353.47979736328125,0,0,255,0,0,0,3,0,0,0
2025-12-08T22:14:47.59788Z,true,6746378,8999.9951171875,1099.9993896484375,2241.19091796875,-0.027684450149536133,-0.03101535513997078,4.215498447418213,-0.0019621849060058594,-0.03690335527062416,9.288269996643066,0.007166837342083454,-0.0010149060981348157,0.004010033793747425,-2.0038259029388428,-0.002912250580266118,-0.0014975209487602115,0.2875613868236542,0.29827407002449036,0.3997116684913635,0.405612051486969,-0.014331024140119553,-0.010573692619800568,0.049250297248363495,0.562152087688446,29.241933822631836,29.235811233520508,30.93836212158203,29.419767379760742,0,0,0,0,0,0,0,0,0,0,0,0,-0.0013205379946157336,-0.0017066947184503078,0.004739805124700069,-0.0015829193871468306,0.014391736127436161,0.010710545815527439,0.049477849155664444,0.5621542930603027,-0.00475957989692688,-0.003581315279006958,0.004844501614570618,0.00552031397819519,364,3,800,1,4,-5058.134765625,179.48486328125,-354.9266357421875,9.28834342956543,33.438036346435545,20.777466951332094,78362.9453125,333.8152160644531,174.64256286621094,184.16709899902344,197.2420654296875,197.2420654296875,11.643507957458496,1,0,0,0,0,353.51318359375,0,0,255,0,0,0,3,0,0,0
2025-12-08T22:14:47.597926Z,true,6746411,8999.9951171875,1099.9993896484375,2236.88232421875,-0.0744023323059082,-0.032031428068876266,4.128604412078857,-0.0019161701202392578,-0.03586243465542793,9.426230430603027,0.0063587697222828865,-0.0010111164301633835,0.00391818443313241,-2.0038223266601562,-0.0026865662075579166,-0.0013654513750225306,0.28919947147369385,0.2993481457233429,0.3986249566078186,0.40408846735954285,-0.01401043962687254,-0.010376613587141037,0.04873256757855415,0.5439867973327637,29.678730010986328,29.67279624938965,31.354475021362305,29.86250877380371,0,0,0,0,0,0,0,0,0,0,0,0,-0.001240071258507669,-0.0016594459302723408,0.004589840304106474,-0.0015546975191682577,0.014065212570130825,0.010508466511964798,0.04894823580980301,0.5439890623092651,-0.004579409956932068,-0.003463178873062134,0.004720032215118408,0.0053458064794540405,364,3,800,1,4,-5058.41796875,179.48452758789062,-355.0577697753906,9.426300048828125,33.93468017578125,21.08606763122559,77617.1328125,331.3157958984375,174.61756896972656,184.13636779785156,197.2476043701172,197.2476043701172,11.217373847961426,1,0,0,0,0,353.5465393066406,0,0,255,0,0,0,3,0,0,0
2025-12-08T22:14:47.621168Z,true,6746444,8999.9951171875,1099.9993896484375,2235.279296875,0.08982062339782715,-0.03279754891991615,4.392760276794434,-0.0018877983093261719,-0.0349368080496788,9.562662124633789,0.0051907142624258995,-0.0010122269159182906,0.0038801641203463078,-2.003818988800049,-0.0024948525242507458,-0.0012354705249890685,0.29060277342796326,0.30039432644844055,0.3976973593235016,0.40260806679725647,-0.013748763129115105,-0.010222051292657852,0.04800104722380638,0.5280622839927673,30.111209869384766,30.10543441772461,31.773082733154297,30.30206298828125,0,0,0,0,0,0,0,0,0,0,0,0,-0.0011769048869609833,-0.0016307920450344682,0.004438639618456364,-0.0015302222454920411,0.013799043372273445,0.01035131886601448,0.04820583015680313,0.528064489364624,-0.004425063729286194,-0.003348112106323242,0.004613786935806274,0.005176246166229248,364,3,800,1,4,-5058.70556640625,179.48416137695312,-355.1908874511719,9.562726020812988,34.42581367492676,21.391244344997407,77030.0546875,329.0726013183594,174.59259033203125,184.10562133789062,197.2520294189453,197.2520294189453,10.803196907043457,1,0,0,0,0,353.5799255371094,0,0,255,0,0,0,3,0,0,0
2025-12-08T22:14:47.659692Z,true,6746477,8999.9951171875,1099.9993896484375,2235.435791015625,-0.2938143014907837,-0.0229377169162035,4.343897819519043,-0.03209972381591797,-0.03406032919883728,9.69808292388916,0.003594795474782586,-0.015065733343362808,-0.001359850401058793,-2.004030227661133,-0.0023492220789194107,-0.0012559338938444853,0.29229044914245605,0.3010360896587372,0.396534264087677,0.4017817974090576,-0.010882638394832611,-0.00945950672030449,0.07054480165243149,0.5507408976554871,30.50585174560547,30.56143569946289,32.051231384277344,30.705291748046875,0,0,0,0,0,0,0,0,0,0,0,0,-0.05300286412239075,-0.05213546380400658,0.0180702805519104,0.012126336805522442,0.054108552634716034,0.05298668518662453,0.07282241433858871,0.5508744120597839,-0.004239439964294434,-0.003277525305747986,0.004480570554733276,0.005081608891487122,364,3,800,1,4,-5058.99755859375,179.48379516601562,-355.32635498046875,9.698197364807129,34.91351051330567,21.69428561323166,76555.6328125,327.0400085449219,174.5712127685547,184.07894897460938,197.25563049316406,197.25563049316406,10.405776023864746,1,0,0,0,0,353.61328125,0,0,255,0,0,0,3,-3,0,0
2025-12-08T22:14:47.693359Z,true,6746511,8999.9951171875,1099.9993896484375,2236.669677734375,-1.4038193225860596,-0.01749555952847004,3.742741584777832,-0.11609554290771484,-0.033352337777614594,9.830425262451172,0.0028579840436577797,-0.054341915994882584,-0.012971818447113037,-2.0050735473632812,-0.0022457342129200697,-0.0015251032309606671,0.2925467789173126,0.3016524016857147,0.39435669779777527,0.40207594633102417,-0.005317650269716978,-0.009196710772812366,0.13410940766334534,0.5862706303596497,30.82731056213379,31.058624267578125,32.112571716308594,31.120779037475586,0,0,0,0,0,0,0,0,0,0,0,0,-0.20983853936195374,-0.1928706169128418,0.05187012255191803,0.0447816401720047,0.20990590751171112,0.19308975338935852,0.14379097521305084,0.5879784226417542,-0.004211246967315674,-0.003209739923477173,0.004231154918670654,0.005115300416946411,364,3,800,1,4,-5059.29248046875,179.48342895507812,-355.4654235839844,9.831168174743652,35.39220542907715,21.991733336811066,76160.6171875,325.1829528808594,174.5568084716797,184.0602264404297,197.25738525390625,197.25738525390625,10.027850151062012,1,0,0,0,0,353.6466369628906,0,0,255,0,0,0,3,-12,0,0
2025-12-08T22:14:47.728044Z,true,6746545,8999.9951171875,1099.9993896484375,2238.5048828125,-1.6556360721588135,-0.02953547239303589,4.181612968444824,-0.15900397300720215,-0.03315090388059616,9.95954704284668,0.0018983851186931133,-0.09444024413824081,-0.002718377858400345,-2.007638454437256,-0.0021613119170069695,-0.001755021745339036,0.2913086414337158,0.30581408739089966,0.3918033838272095,0.40254196524620056,-0.0075647481717169285,-0.00886942446231842,0.10726040601730347,0.5281528830528259,31.15359878540039,31.581920623779297,32.513423919677734,31.698692321777344,0,0,0,0,0,0,0,0,0,0,0,0,-0.1080990806221962,-0.10101059079170227,0.039549630135297775,0.033145759254693985,0.10836344957351685,0.1013992428779602,0.1143195852637291,0.5291919112205505,-0.0043474286794662476,-0.0027520060539245605,0.0039387047290802,0.0051686763763427734,364,3,800,1,4,-5059.59033203125,179.48304748535156,-355.6091613769531,9.960871696472168,35.859138107299806,22.281872332706453,75821.4921875,323.474609375,174.55445861816406,184.0542449951172,197.2574920654297,197.2574920654297,9.670853614807129,1,0,0,0,0,353.6800231933594,0,0,255,0,0,0,3,-12,0,0
2025-12-08T22:14:47.775334Z,true,6746579,8999.9951171875,1099.9993896484375,2240.617919921875,-0.3722248077392578,-0.008665382862091064,3.966571807861328,-0.0643913745880127,-0.033163852989673615,10.089192390441895,-0.00021617300808429718,-0.07268942147493362,0.021552376449108124,-2.010619878768921,-0.0021472678054124117,-0.0012987552909180522,0.2895037531852722,0.3104044198989868,0.39196833968162537,0.40066269040107727,-0.01852329820394516,-0.01109643280506134,0.011586345732212067,0.3791115880012512,31.61259651184082,31.967531204223633,33.42228698730469,32.43092346191406,0,0,0,0,0,0,0,0,0,0,0,0,0.14192692935466766,0.14447146654129028,-0.033580560237169266,-0.03923982009291649,0.1431305855512619,0.1448969841003418,0.0355231948196888,0.3811369240283966,-0.004545941948890686,-0.0022471249103546143,0.003957599401473999,0.004953429102897644,364,3,800,1,4,-5059.8916015625,179.48268127441406,-355.75482177734375,10.089452743530273,36.32202987670899,22.56950042011261,75522.265625,321.89599609375,174.54270935058594,184.0363006591797,197.25628662109375,197.25628662109375,9.335585594177246,1,0,0,0,0,353.71337890625,0,0,255,0,0,0,3,0,0,0
2025-12-08T22:14:47.800653Z,true,6746611,8999.9951171875,1099.9993896484375,2242.802001953125,0.16252410411834717,-0.0041936589404940605,3.620818853378296,-0.017945528030395508,-0.03358164802193642,10.222440719604492,-0.0025266031734645367,-0.03923289477825165,0.009190593846142292,-2.0123648643493652,-0.002199313137680292,-0.0008193473913706839,0.2935887575149536,0.30880722403526306,0.39412811398506165,0.3979397416114807,-0.015359358862042427,-0.0096309594810009,0.04321512579917908,0.40996143221855164,32.111881256103516,32.30012893676758,33.74125671386719,32.58926010131836,0,0,0,0,0,0,0,0,0,0,0,0,0.05906857177615166,0.05859554558992386,-0.032221902161836624,-0.03750687092542648,0.06103282794356346,0.05938176065683365,0.05390545725822449,0.41167357563972473,-0.0040966421365737915,-0.0024227946996688843,0.004204973578453064,0.004641547799110413,364,3,800,1,4,-5060.19775390625,179.4822998046875,-355.9005432128906,10.222511291503906,36.80104064941406,22.86714440841675,75251.90625,320.43121337890625,174.5349578857422,184.0211944580078,197.26048278808594,197.26048278808594,9.021676063537598,1,0,0,0,0,353.7467346191406,0,0,255,0,0,0,3,0,0,0
2025-12-08T22:14:47.826614Z,true,6746646,8999.9951171875,1099.9993896484375,2244.928955078125,0.09042894840240479,0.007416515611112118,3.606204032897949,-0.005879878997802734,-0.03361563757061958,10.354273796081543,-0.005010304972529411,-0.02124044857919216,0.004794523119926453,-2.013284683227539,-0.0023325157817453146,-0.0006054318509995937,0.29625147581100464,0.30767422914505005,0.3947676718235016,0.3969584107398987,-0.01307598128914833,-0.008455274626612663,0.050974417477846146,0.45878884196281433,32.57331848144531,32.669898986816406,34.16366958618164,32.89268112182617,0,0,0,0,0,0,0,0,0,0,0,0,0.02676578424870968,0.02607366442680359,-0.018391184508800507,-0.02357466332614422,0.029789065942168236,0.02741035632789135,0.054190654307603836,0.4593941271305084,-0.0038037747144699097,-0.0025474131107330322,0.004278227686882019,0.00452914834022522,364,3,800,1,4,-5060.5078125,179.48194885253906,-356.04779052734375,10.354331016540527,37.2755916595459,23.16201722414017,75003.1953125,319.06829833984375,174.51625061035156,183.99642944335938,197.2613983154297,197.2613983154297,8.728533744812012,1,0,0,0,0,353.78009033203125,0,0,255,0,0,0,3,0,0,0
2025-12-08T22:14:47.887536Z,true,6746679,8999.9951171875,1099.9993896484375,2246.927490234375,0.20447707176208496,0.022496940568089485,4.144695281982422,-0.0027408599853515625,-0.03415965661406517,10.48525333404541,-0.006408975925296545,-0.011719808913767338,0.0037840032018721104,-2.013770818710327,-0.0025257826782763004,-0.0004673711664509028,0.2971743643283844,0.307212233543396,0.39530977606773376,0.39711737632751465,-0.01242834609001875,-0.008590757846832275,0.051536209881305695,0.4543555974960327,33.012489318847656,33.06122589111328,34.59303665161133,33.28524398803711,0,0,0,0,0,0,0,0,0,0,0,0,0.012643943540751934,0.011963026598095894,-0.008730432949960232,-0.013958633877336979,0.017729440703988075,0.01472803857177496,0.05227046459913254,0.4545699656009674,-0.0037022680044174194,-0.0025982260704040527,0.004340320825576782,0.0045473575592041016,364,3,800,1,4,-5060.82177734375,179.48165893554688,-356.19696044921875,10.485309600830078,37.74711456298828,23.455008458480837,74771.5078125,317.79791259765625,174.49363708496094,183.96798706054688,197.2607421875,197.2607421875,8.455275535583496,1,0,0,0,0,353.8134460449219,0,0,255,0,0,0,3,0,0,0
2025-12-08T22:14:47.921361Z,true,6746711,8999.9951171875,1099.9993896484375,2248.763916015625,-0.08924782276153564,0.028881924226880074,3.671830415725708,-0.0020017623901367188,-0.0350615493953228,10.615720748901367,-0.00735758850350976,-0.006687984801828861,0.003652730491012335,-2.0140280723571777,-0.002757522976025939,-0.0003438671410549432,0.2976127862930298,0.3070234954357147,0.39592334628105164,0.39754268527030945,-0.01209394820034504,-0.008721769787371159,0.050634343177080154,0.44578030705451965,33.43838119506836,33.461910247802734,35.016422271728516,33.69246292114258,0,0,0,0,0,0,0,0,0,0,0,0,0.006013154052197933,0.005351600702852011,-0.002985564526170492,-0.008271628990769386,0.013506353832781315,0.010232736356556416,0.050722286105155945,0.44585704803466797,-0.0036540478467941284,-0.0026189833879470825,0.004410594701766968,0.0045960694551467896,364,3,800,1,4,-5061.1396484375,179.4814453125,-356.3480224609375,10.615778923034668,38.216804122924806,23.74686050409317,74554.0625,316.61285400390625,174.4694366455078,183.93807983398438,197.2593231201172,197.2593231201172,8.20089054107666,1,0,0,0,0,353.8468017578125,0,0,255,0,0,0,3,0,0,0
2025-12-08T22:14:47.925937Z,true,6746745,8999.9951171875,1099.9993896484375,2250.43115234375,0.04414331912994385,0.03398923575878143,3.9816694259643555,-0.0018839836120605469,-0.036132801324129105,10.745887756347656,-0.007977903820574284,-0.004031725227832794,0.0036820205859839916,-2.014164447784424,-0.003015717724338174,-0.00022064245422370732,0.29786667227745056,0.3068568706512451,0.3965401351451874,0.3981882333755493,-0.011836516670882702,-0.008732356131076813,0.05006573721766472,0.4388160705566406,33.85670471191406,33.866939544677734,35.433319091796875,34.101680755615234,0,0,0,0,0,0,0,0,0,0,0,0,0.0027747375424951315,0.0021286511328071356,0.00021367412409745157,-0.005137247499078512,0.012157396413385868,0.00898805819451809,0.05006619542837143,0.4388461410999298,-0.003626123070716858,-0.002637311816215515,0.0044812411069869995,0.004670009016990662,364,3,800,1,4,-5061.4619140625,179.4812774658203,-356.5011291503906,10.745949745178223,38.6854190826416,24.038044822978975,74348.890625,315.5055847167969,174.44468688964844,183.90762329101562,197.2573699951172,197.2573699951172,7.963950157165527,1,0,0,0,0,353.88018798828125,0,0,255,0,0,0,3,0,0,0
2025-12-08T22:14:47.983424Z,true,6746778,8999.9951171875,1099.9993896484375,2251.930908203125,-0.1423966884613037,0.05154069513082504,3.648017406463623,-0.0018682479858398438,-0.037195295095443726,10.875504493713379,-0.008241239003837109,-0.0026175333186984062,0.0035994478967040777,-2.014237642288208,-0.0032879223581403494,-0.0000989267136901617,0.29806190729141235,0.3066363036632538,0.3972398042678833,0.3987862765789032,-0.011697818525135517,-0.008803104981780052,0.05057758837938309,0.42520537972450256,34.26993942260742,34.27330017089844,35.83639144897461,34.531532287597656,0,0,0,0,0,0,0,0,0,0,0,0,0.0012190494453534484,0.0005819445359520614,0.0019607502035796642,-0.003467506729066372,0.011761166155338287,0.008822319097816944,0.0506155826151371,0.4252195358276367,-0.0036046504974365234,-0.002661570906639099,0.004561379551887512,0.004738509654998779,364,3,800,1,4,-5061.78759765625,179.48118591308594,-356.6559753417969,10.875568389892578,39.15204620361328,24.327993954086306,74155.203125,314.47210693359375,174.4197540283203,183.87705993652344,197.25489807128906,197.25489807128906,7.743721961975098,1,0,0,0,0,353.9135437011719,0,0,255,0,0,0,3,0,0,0
2025-12-08T22:14:48.010013Z,true,6746811,8999.9951171875,1099.9993896484375,2140.02001953125,0.149377703666687,0.04588419571518898,3.1077663898468018,-0.0019617080688476562,-0.035855732858181,10.901687622070312,0.005494714714586735,-0.0010333482641726732,0.003568591084331274,-2.0142829418182373,-0.0033513123635202646,0.000020575129383360036,0.29924601316452026,0.30730652809143066,0.39641836285591125,0.398050457239151,0.0009069029474630952,0.0010089697316288948,0.0009007504559122026,0.001003660960122943,34.36607360839844,34.37127685546875,34.36612319946289,34.371212005615234,0,0,0,0,0,0,0,0,0,0,0,0,0.0016363650793209672,0.0010145849082618952,0.0015269818250089884,-0.0038963425904512405,0.0018708724528551102,0.001430874690413475,0.0017728577367961407,0.0040235333144664764,-0.003474414348602295,-0.0025878548622131348,0.004467293620109558,0.004654228687286377,364,3,800,1,4,-5062.1162109375,179.48118591308594,-356.8121032714844,10.901747703552246,39.24629173278809,24.386555507984163,-2645.70849609375,-11.795770645141602,174.3944091796875,183.84616088867188,197.23875427246094,197.23875427246094,0.23154354095458984,1,0,0,0,0,353.9468994140625,0,0,255,0,0,0,3,0,0,0
2025-12-08T22:14:48.025158Z,true,6746845,8999.9951171875,1099.9993896484375,2671.246826171875,-0.05479782819747925,0.03796111047267914,1.331656575202942,-0.0018963813781738281,-0.03114667721092701,10.894424438476562,0.013995436951518059,-0.0004779400478582829,0.0034140716306865215,-2.01430606842041,-0.002990533597767353,0.0001370395766571164,0.30408141016960144,0.3115521967411041,0.39267346262931824,0.39428213238716125,0.0007500473875552416,0.0007926283869892359,0.0007493150187656283,0.0007948233396746218,34.33059310913086,34.333003997802734,34.33060836791992,34.332969665527344,0,0,0,0,0,0,0,0,0,0,0,0,0.0010449328692629933,0.00038456276524811983,0.0020359607879072428,-0.003021328244358301,0.0012862564763054252,0.0008809927967377007,0.0021694721654057503,0.0031241269316524267,-0.0029425770044326782,-0.002120882272720337,0.004038363695144653,0.00422261655330658,364,3,800,1,4,-5062.44482421875,179.48121643066406,-356.9681701660156,10.894469261169434,39.22008934020996,24.370274069080356,83548.2421875,304.0099792480469,174.36846923828125,183.8146209716797,197.2010955810547,197.2010955810547,2.297980308532715,1,0,0,0,0,353.9802551269531,0,0,255,0,0,0,2,0,0,0
2025-12-08T22:14:48.09054Z,true,6746878,8999.9951171875,1099.9993896484375,2979.463134765625,0.03988465666770935,0.044499825686216354,1.1999059915542603,-0.0018038749694824219,-0.02507689781486988,10.948741912841797,0.004925253335386515,-0.00018714235920924693,0.0032099303789436817,-2.0143165588378906,-0.0025581144727766514,0.0002473200729582459,0.31098684668540955,0.3177785873413086,0.3871169686317444,0.38875359296798706,-0.020588036626577377,-0.020511670038104057,0.4911040961742401,0.5000699162483215,34.45151901245117,34.452476501464844,36.09881591796875,36.13469696044922,0,0,0,0,0,0,0,0,0,0,0,0,0.0007703508017584682,0.00003288339212303981,0.0020294631831347942,-0.002286841394379735,0.02060244418680668,0.020511696115136147,0.4911082983016968,0.5000751614570618,-0.002183064818382263,-0.0014360547065734863,0.00340193510055542,0.0035893917083740234,364,3,800,1,4,-5062.7734375,179.48129272460938,-357.1243591308594,10.948771476745605,39.41557731628418,24.491744867191315,95150.796875,304.4402770996094,174.3426055908203,183.78318786621094,197.16346740722656,197.16346740722656,3.5883684158325195,1,0,0,0,0,354.01361083984375,0,0,255,0,0,0,2,0,0,0
2025-12-08T22:14:48.090591Z,true,6746911,8999.9951171875,1099.9993896484375,3007.38232421875,-0.010825037956237793,0.05506747215986252,3.2297372817993164,-0.0016741752624511719,-0.026766754686832428,11.151982307434082,-0.020185699686408043,-0.00011208627256564796,0.002662956714630127,-2.0143215656280518,-0.0029100694227963686,0.00034579384373500943,0.313856303691864,0.3198832869529724,0.38544416427612305,0.38729363679885864,-0.015355494804680347,-0.0153428940102458,0.35139474272727966,0.35361987352371216,35.140750885009766,35.1412467956543,36.451961517333984,36.45840835571289,0,0,0,0,0,0,0,0,0,0,0,0,0.0007875238079577684,0.00003632721200119704,0.0020242552272975445,-0.001865358673967421,0.015375676564872265,0.015342936851084232,0.35140058398246765,0.35362479090690613,-0.0018674582242965698,-0.001204565167427063,0.0032103359699249268,0.003422170877456665,364,3,800,1,4,-5063.10693359375,179.4814453125,-357.2828063964844,11.152015686035156,40.147256469726564,24.946389968719483,107042.984375,340.3517761230469,174.31834411621094,183.7533721923828,197.177734375,197.177734375,4.563117027282715,1,0,0,0,0,354.0469665527344,0,0,255,0,0,0,2,0,0,0
2025-12-08T22:14:48.123411Z,true,6746945,8999.9951171875,1099.9993896484375,3059.407470703125,-0.008342385292053223,0.006024693138897419,4.345491409301758,-0.0014934539794921875,-0.038666270673274994,11.351228713989258,-0.030202224850654602,-0.00007615798676852137,0.002302105538547039,-2.014324903488159,-0.003792999777942896,0.00042786452104337513,0.31099334359169006,0.3163584768772125,0.3916679322719574,0.3938049376010895,-0.015103290788829327,-0.015102127566933632,0.33934149146080017,0.33947089314460754,35.78489303588867,35.785179138183594,37.086158752441406,37.08550262451172,0,0,0,0,0,0,0,0,0,0,0,0,0.0006891068769618869,0.00004764454934047535,0.002406955463811755,-0.002184807788580656,0.015119003131985664,0.015102203004062176,0.33935001492500305,0.33947792649269104,-0.0021823495626449585,-0.0015922486782073975,0.003923192620277405,0.004167959094047546,364,3,800,1,4,-5063.4462890625,179.4816131591797,-357.4441223144531,11.351295471191406,40.864663696289064,25.392166891326905,111361.1328125,348.08843994140625,174.29396057128906,183.7234649658203,197.1894989013672,197.1894989013672,5.432005882263184,1,0,0,0,0,354.0803527832031,0,0,255,0,0,0,2,0,0,0
2025-12-08T22:14:48.164972Z,true,6746978,8999.9951171875,1099.9993896484375,3113.286865234375,-0.03794729709625244,-0.008442380465567112,5.065004825592041,-0.0013394355773925781,-0.05214706435799599,11.55563735961914,-0.03199053183197975,-0.00005383222742239013,0.0019408082589507103,-2.0143275260925293,-0.004850492347031832,0.0004981779493391514,0.30529749393463135,0.3097083270549774,0.40198594331741333,0.40445274114608765,-0.015001627616584301,-0.015011360868811607,0.33379891514778137,0.3320353329181671,36.43190383911133,36.432064056396484,37.742496490478516,37.73541259765625,0,0,0,0,0,0,0,0,0,0,0,0,0.000606793852057308,0.00011788291885750368,0.0031143699306994677,-0.0028288415633141994,0.015013894066214561,0.015011823736131191,0.3338134288787842,0.33204737305641174,-0.0028088241815567017,-0.0023236870765686035,0.0051049888134002686,0.005387529730796814,364,3,800,1,4,-5063.79150390625,179.48175048828125,-357.6082458496094,11.555754661560059,41.600716781616214,25.84952983263016,115785.78125,355.6631164550781,174.2694091796875,183.69334411621094,197.200439453125,197.200439453125,6.2498369216918945,1,0,0,0,0,354.11370849609375,0,0,255,0,0,0,2,0,0,0
2025-12-08T22:14:48.188463Z,true,6747011,8999.9951171875,1099.9993896484375,3169.106201171875,0.0966639518737793,-0.02165156975388527,5.807269096374512,-0.0011563301086425781,-0.06384968757629395,11.764824867248535,-0.028626779094338417,-0.000052389037591638044,0.0014674300327897072,-2.0143299102783203,-0.005867911968380213,0.0005542039289139211,0.29855111241340637,0.3019394874572754,0.4133144021034241,0.41602447628974915,-0.014945718459784985,-0.014971742406487465,0.3331589698791504,0.32954341173171997,37.085689544677734,37.085838317871094,38.42227554321289,38.408897399902344,0,0,0,0,0,0,0,0,0,0,0,0,0.0005775289027951658,0.0002399943332420662,0.003912705462425947,-0.003554830327630043,0.014956872910261154,0.014973665587604046,0.3331819474697113,0.32956257462501526,-0.0035508424043655396,-0.0031781643629074097,0.006402522325515747,0.006712928414344788,364,3,800,1,4,-5064.14306640625,179.4818878173828,-357.7753601074219,11.764997482299805,42.353990936279295,26.317593468055726,120336.609375,363.1422424316406,174.2447509765625,183.66310119628906,197.2112579345703,197.2112579345703,7.0504655838012695,1,0,0,0,0,354.1470642089844,0,0,255,0,0,0,2,0,0,0
2025-12-08T22:14:48.230577Z,true,6747045,8999.9951171875,1099.9993896484375,3227.1708984375,0.15374183654785156,0.0028225076384842396,6.225541114807129,-0.0009527206420898438,-0.07276993244886398,11.978525161743164,-0.022355109453201294,-0.00004774253102368675,0.0009602010250091553,-2.0143322944641113,-0.0067151449620723724,0.0005941935232840478,0.29202044010162354,0.2941877245903015,0.4236301779747009,0.4266727864742279,-0.014940561726689339,-0.014974314719438553,0.33752134442329407,0.3319273293018341,37.748939514160156,37.74909591674805,39.12991714477539,39.10895538330078,0,0,0,0,0,0,0,0,0,0,0,0,0.0005424795672297478,0.0003357401001267135,0.00464978814125061,-0.0042427582666277885,0.014950406737625599,0.014978078193962574,0.33755338191986084,0.3319544494152069,-0.004269137978553772,-0.004030764102935791,0.007584065198898315,0.00793255865573883,364,3,800,1,4,-5064.50146484375,179.4821014404297,-357.9455261230469,11.978747367858887,43.123490524291995,26.79573913705826,125106.0546875,370.75396728515625,174.22003173828125,183.63278198242188,197.2224884033203,197.2224884033203,7.854067802429199,1,0,0,0,0,354.1804504394531,0,0,255,0,0,0,2,0,0,0
2025-12-08T22:14:48.264382Z,true,6747078,8999.9951171875,1099.9993896484375,3287.525634765625,0.03844332695007324,0.016964709386229515,6.26872444152832,-0.0007233619689941406,-0.07903509587049484,12.196523666381836,-0.01495362352579832,-0.000038830559788038954,0.0004124068655073643,-2.014333963394165,-0.007328033912926912,0.0006162475328892469,0.2861030697822571,0.28702080249786377,0.43163591623306274,0.43493443727493286,-0.014960279688239098,-0.015003545209765434,0.34615904092788696,0.33848193287849426,38.42381286621094,38.4239387512207,39.86552810668945,39.836585998535156,0,0,0,0,0,0,0,0,0,0,0,0,0.0005173161043785512,0.0004106935812160373,0.0052465698681771755,-0.0047764102928340435,0.01496922131627798,0.015009164810180664,0.34619879722595215,0.33851563930511475,-0.004919975996017456,-0.004819035530090332,0.008501023054122925,0.008878827095031738,364,3,800,1,4,-5064.86572265625,179.48240661621094,-358.11871337890625,12.196779251098633,43.90840530395508,27.28346337795258,130106.734375,378.5065002441406,174.1953125,183.60238647460938,197.2345428466797,197.2345428466797,8.672802925109863,1,0,0,0,0,354.21380615234375,0,0,255,0,0,0,2,0,0,0
2025-12-08T22:14:48.288815Z,true,6747111,8999.9951171875,1099.9993896484375,3350.2890625,0.18538761138916016,0.0069125946611166,6.775310516357422,-0.0004782676696777344,-0.08327174186706543,12.419305801391602,-0.0077996826730668545,-0.00003863935125991702,-0.00014707539230585098,-2.0143356323242188,-0.007695790380239487,0.0006203420925885439,0.2810640335083008,0.28053173422813416,0.4369661808013916,0.4403970241546631,-0.015047919936478138,-0.015103130601346493,0.35803139209747314,0.34851890802383423,39.113792419433594,39.11394500732422,40.62995910644531,40.59378433227539,0,0,0,0,0,0,0,0,0,0,0,0,0.0005060274270363152,0.00046833648229949176,0.0056489636190235615,-0.005147777032107115,0.015056425705552101,0.01511039026081562,0.35807594656944275,0.3485569357872009,-0.005474209785461426,-0.005532756447792053,0.009111538529396057,0.009504497051239014,364,3,800,1,4,-5065.2373046875,179.4827880859375,-358.2952880859375,12.419584274291992,44.710503387451176,27.78186484653473,135374.046875,386.46307373046875,174.17054748535156,183.57192993164062,197.2478790283203,197.2478790283203,9.516947746276855,1,0,0,0,0,354.2471923828125,0,0,255,0,0,0,2,0,0,0
2025-12-08T22:14:48.334891Z,true,6747145,8999.9951171875,1099.9993896484375,3415.127685546875,-0.08259081840515137,0.011249872855842113,6.34851598739624,-0.00022459030151367188,-0.0861998125910759,12.646352767944336,-0.0017463085241615772,-0.00003067171201109886,-0.0006818371475674212,-2.0143368244171143,-0.007842645980417728,0.0006059206207282841,0.27698078751564026,0.2750266194343567,0.4397609531879425,0.44339045882225037,-0.015114780515432358,-0.015175825916230679,0.3722078204154968,0.36050769686698914,39.818992614746094,39.81913375854492,41.420040130615234,41.37562561035156,0,0,0,0,0,0,0,0,0,0,0,0,0.0004825314099434763,0.0004849313700105995,0.005873522255569696,-0.005363675765693188,0.015122480690479279,0.015183571726083755,0.3722541630268097,0.36054760217666626,-0.0059233158826828,-0.006138250231742859,0.009431645274162292,0.009847357869148254,364,3,800,1,4,-5065.61474609375,179.48321533203125,-358.4747314453125,12.646646499633789,45.52792739868164,28.28978942089081,140923.09375,394.6741943359375,174.1458282470703,183.54148864746094,197.26280212402344,197.26280212402344,10.389800071716309,1,0,0,0,0,354.280517578125,0,0,255,0,0,0,2,0,0,0
